{
"type": "FeatureCollection",
"name": "clinicas2008crtm05",
"crs": { "type": "name", "properties": { "name": "urn:ogc:def:crs:OGC:1.3:CRS84" } },
"features": [
{ "type": "Feature", "properties": { "cat": 1, "NOMBRE": "CLINICA PACTO DEL JOCOTE", "TIPO": "C.C.S.S", "RECURSOS": "ND", "PROVINCIA": "ALAJUELA", "CANTON": "ALAJUELA", "DISTRITO": "ALAJUELA" }, "geometry": { "type": "Point", "coordinates": [ -84.212753453588746, 10.016978637486387 ] } },
{ "type": "Feature", "properties": { "cat": 2, "NOMBRE": "EBAIS BO. CONCEPCION ALAJUELA", "TIPO": "E.B.A.I.S", "RECURSOS": "ND", "PROVINCIA": "ALAJUELA", "CANTON": "ALAJUELA", "DISTRITO": "ALAJUELA" }, "geometry": { "type": "Point", "coordinates": [ -84.212753453588746, 10.016978637486387 ] } },
{ "type": "Feature", "properties": { "cat": 3, "NOMBRE": "EBAIS ALAJUELA", "TIPO": "E.B.A.I.S", "RECURSOS": "ND", "PROVINCIA": "ALAJUELA", "CANTON": "ALAJUELA", "DISTRITO": "ALAJUELA" }, "geometry": { "type": "Point", "coordinates": [ -84.212753453588746, 10.016978637486387 ] } },
{ "type": "Feature", "properties": { "cat": 4, "NOMBRE": "CLINICA DINAMARCA ALAJUELA", "TIPO": "PRIVADA", "RECURSOS": "ND", "PROVINCIA": "ALAJUELA", "CANTON": "ALAJUELA", "DISTRITO": "ALAJUELA" }, "geometry": { "type": "Point", "coordinates": [ -84.212753453588746, 10.016978637486387 ] } },
{ "type": "Feature", "properties": { "cat": 5, "NOMBRE": "CLINICA DR. MARCIAL RODRIGUEZ CONEJO", "TIPO": "C.C.S.S", "RECURSOS": "ND", "PROVINCIA": "ALAJUELA", "CANTON": "ALAJUELA", "DISTRITO": "ALAJUELA" }, "geometry": { "type": "Point", "coordinates": [ -84.212753453588746, 10.016978637486387 ] } },
{ "type": "Feature", "properties": { "cat": 6, "NOMBRE": "CLINICA SAN RAFAEL DE  ALAJUELA", "TIPO": "C.C.S.S", "RECURSOS": "ND", "PROVINCIA": "ALAJUELA", "CANTON": "ALAJUELA", "DISTRITO": "ALAJUELA" }, "geometry": { "type": "Point", "coordinates": [ -84.212753453588746, 10.016978637486387 ] } },
{ "type": "Feature", "properties": { "cat": 7, "NOMBRE": "CLINICA CARRIZAL", "TIPO": "C.C.S.S", "RECURSOS": "ND", "PROVINCIA": "ALAJUELA", "CANTON": "ALAJUELA", "DISTRITO": "CARRIZAL" }, "geometry": { "type": "Point", "coordinates": [ -84.169349942579615, 10.085096202376123 ] } },
{ "type": "Feature", "properties": { "cat": 8, "NOMBRE": "CLINICA SABANILLA", "TIPO": "C.C.S.S", "RECURSOS": "ND", "PROVINCIA": "ALAJUELA", "CANTON": "ALAJUELA", "DISTRITO": "SABANILLA" }, "geometry": { "type": "Point", "coordinates": [ -84.198886138595611, 10.117008868784369 ] } },
{ "type": "Feature", "properties": { "cat": 9, "NOMBRE": "CLINICA SAN JOSE DE ALAJUELA", "TIPO": "C.C.S.S", "RECURSOS": "ND", "PROVINCIA": "ALAJUELA", "CANTON": "ALAJUELA", "DISTRITO": "SAN JOSE" }, "geometry": { "type": "Point", "coordinates": [ -84.240861910054562, 10.012473798311081 ] } },
{ "type": "Feature", "properties": { "cat": 10, "NOMBRE": "CLINICA DE SAN RAFAEL DE ALAJUELA", "TIPO": "PRIVADA", "RECURSOS": "ND", "PROVINCIA": "ALAJUELA", "CANTON": "ALAJUELA", "DISTRITO": "SAN RAFAEL" }, "geometry": { "type": "Point", "coordinates": [ -84.213501959867841, 9.973279130994122 ] } },
{ "type": "Feature", "properties": { "cat": 11, "NOMBRE": "CLINICA SAN RAFAEL DE OJO AGUA", "TIPO": "C.C.S.S", "RECURSOS": "ND", "PROVINCIA": "ALAJUELA", "CANTON": "ALAJUELA", "DISTRITO": "SAN RAFAEL" }, "geometry": { "type": "Point", "coordinates": [ -84.223082216107926, 9.968951340890184 ] } },
{ "type": "Feature", "properties": { "cat": 12, "NOMBRE": "CLINICA SAN MIGUEL", "TIPO": "C.C.S.S", "RECURSOS": "ND", "PROVINCIA": "ALAJUELA", "CANTON": "ALAJUELA", "DISTRITO": "SARAPIQUI" }, "geometry": { "type": "Point", "coordinates": [ -84.181671557085281, 10.3149917808048 ] } },
{ "type": "Feature", "properties": { "cat": 13, "NOMBRE": "CLINICA TAMBOR CACAO", "TIPO": "C.C.S.S", "RECURSOS": "ND", "PROVINCIA": "ALAJUELA", "CANTON": "ALAJUELA", "DISTRITO": "TAMBOR" }, "geometry": { "type": "Point", "coordinates": [ -84.239754837140239, 10.037448609160382 ] } },
{ "type": "Feature", "properties": { "cat": 14, "NOMBRE": "CLINICA DE TURRUCARES", "TIPO": "C.C.S.S", "RECURSOS": "ND", "PROVINCIA": "ALAJUELA", "CANTON": "ALAJUELA", "DISTRITO": "TURRUCARES" }, "geometry": { "type": "Point", "coordinates": [ -84.317848467627343, 9.959107885717756 ] } },
{ "type": "Feature", "properties": { "cat": 15, "NOMBRE": "EBAIS ZARCERO", "TIPO": "E.B.A.I.S", "RECURSOS": "ND", "PROVINCIA": "ALAJUELA", "CANTON": "ALFARO RUIZ", "DISTRITO": "ZARCERO" }, "geometry": { "type": "Point", "coordinates": [ -84.390934669942908, 10.184521015112532 ] } },
{ "type": "Feature", "properties": { "cat": 16, "NOMBRE": "CLINICA ALFARO RUIZ", "TIPO": "C.C.S.S", "RECURSOS": "ND", "PROVINCIA": "ALAJUELA", "CANTON": "ALFARO RUIZ", "DISTRITO": "ZARCERO" }, "geometry": { "type": "Point", "coordinates": [ -84.39093691225851, 10.18452301454024 ] } },
{ "type": "Feature", "properties": { "cat": 17, "NOMBRE": "CLINICA ZARCERO", "TIPO": "C.C.S.S", "RECURSOS": "ND", "PROVINCIA": "ALAJUELA", "CANTON": "ALFARO RUIZ", "DISTRITO": "ZARCERO" }, "geometry": { "type": "Point", "coordinates": [ -84.390934097986573, 10.184521015216093 ] } },
{ "type": "Feature", "properties": { "cat": 18, "NOMBRE": "CLINICA ATENAS", "TIPO": "C.C.S.S", "RECURSOS": "ND", "PROVINCIA": "ALAJUELA", "CANTON": "ATENAS", "DISTRITO": "ATENAS" }, "geometry": { "type": "Point", "coordinates": [ -84.379618752264278, 9.977885177510796 ] } },
{ "type": "Feature", "properties": { "cat": 19, "NOMBRE": "EBAIS GRECIA", "TIPO": "E.B.A.I.S", "RECURSOS": "ND", "PROVINCIA": "ALAJUELA", "CANTON": "GRECIA", "DISTRITO": "GRECIA" }, "geometry": { "type": "Point", "coordinates": [ -84.31090256133804, 10.073124210928095 ] } },
{ "type": "Feature", "properties": { "cat": 20, "NOMBRE": "CLINICA MEDICA EIDITA LTDA", "TIPO": "PRIVADA", "RECURSOS": "ND", "PROVINCIA": "ALAJUELA", "CANTON": "GRECIA", "DISTRITO": "GRECIA" }, "geometry": { "type": "Point", "coordinates": [ -84.310904665708478, 10.073125373242044 ] } },
{ "type": "Feature", "properties": { "cat": 21, "NOMBRE": "CLINICA GRECIA", "TIPO": "C.C.S.S", "RECURSOS": "ND", "PROVINCIA": "ALAJUELA", "CANTON": "GRECIA", "DISTRITO": "GRECIA" }, "geometry": { "type": "Point", "coordinates": [ -84.310903290312694, 10.073124210979314 ] } },
{ "type": "Feature", "properties": { "cat": 22, "NOMBRE": "CLINICA RIO CUARTO SANTA RITA", "TIPO": "C.C.S.S", "RECURSOS": "ND", "PROVINCIA": "ALAJUELA", "CANTON": "GRECIA", "DISTRITO": "RIO CUARTO" }, "geometry": { "type": "Point", "coordinates": [ -84.206494580931135, 10.34355513896937 ] } },
{ "type": "Feature", "properties": { "cat": 23, "NOMBRE": "CLINICA TACARES", "TIPO": "C.C.S.S", "RECURSOS": "ND", "PROVINCIA": "ALAJUELA", "CANTON": "GRECIA", "DISTRITO": "TACARES" }, "geometry": { "type": "Point", "coordinates": [ -84.290924445540156, 10.02948456849005 ] } },
{ "type": "Feature", "properties": { "cat": 24, "NOMBRE": "CLINICA GUATUSO", "TIPO": "C.C.S.S", "RECURSOS": "ND", "PROVINCIA": "ALAJUELA", "CANTON": "GUATUSO", "DISTRITO": "SAN RAFAEL" }, "geometry": { "type": "Point", "coordinates": [ -84.820856587446144, 10.673947891109815 ] } },
{ "type": "Feature", "properties": { "cat": 25, "NOMBRE": "EBAIS LOS CHILES", "TIPO": "E.B.A.I.S", "RECURSOS": "ND", "PROVINCIA": "ALAJUELA", "CANTON": "LOS CHILES", "DISTRITO": "LOS CHILES" }, "geometry": { "type": "Point", "coordinates": [ -84.715952520634247, 11.031875158758915 ] } },
{ "type": "Feature", "properties": { "cat": 26, "NOMBRE": "CLINICA ESPECIALIDADES MEDICAS SAN GERARDO", "TIPO": "PRIVADA", "RECURSOS": "ND", "PROVINCIA": "ALAJUELA", "CANTON": "NARANJO", "DISTRITO": "NARANJO" }, "geometry": { "type": "Point", "coordinates": [ -84.378499714971497, 10.096884392587246 ] } },
{ "type": "Feature", "properties": { "cat": 27, "NOMBRE": "CLINICA SAN JUDAS TADEO", "TIPO": "PRIVADA", "RECURSOS": "ND", "PROVINCIA": "ALAJUELA", "CANTON": "NARANJO", "DISTRITO": "NARANJO" }, "geometry": { "type": "Point", "coordinates": [ -84.378499714971497, 10.096884392587246 ] } },
{ "type": "Feature", "properties": { "cat": 28, "NOMBRE": "CLINICA DENTAL ESCUELA DE NARANJO", "TIPO": "C.C.S.S", "RECURSOS": "ND", "PROVINCIA": "ALAJUELA", "CANTON": "NARANJO", "DISTRITO": "NARANJO" }, "geometry": { "type": "Point", "coordinates": [ -84.378499714971497, 10.096884392587246 ] } },
{ "type": "Feature", "properties": { "cat": 29, "NOMBRE": "CLINICA NARANJO", "TIPO": "C.C.S.S", "RECURSOS": "ND", "PROVINCIA": "ALAJUELA", "CANTON": "NARANJO", "DISTRITO": "NARANJO" }, "geometry": { "type": "Point", "coordinates": [ -84.378499714971497, 10.096884392587246 ] } },
{ "type": "Feature", "properties": { "cat": 30, "NOMBRE": "EBAIS OROTINA", "TIPO": "E.B.A.I.S", "RECURSOS": "ND", "PROVINCIA": "ALAJUELA", "CANTON": "OROTINA", "DISTRITO": "OROTINA" }, "geometry": { "type": "Point", "coordinates": [ -84.522437082575451, 9.910993042298317 ] } },
{ "type": "Feature", "properties": { "cat": 31, "NOMBRE": "CLINICA OROTINA", "TIPO": "C.C.S.S", "RECURSOS": "ND", "PROVINCIA": "ALAJUELA", "CANTON": "OROTINA", "DISTRITO": "OROTINA" }, "geometry": { "type": "Point", "coordinates": [ -84.522436279390945, 9.910979564688114 ] } },
{ "type": "Feature", "properties": { "cat": 32, "NOMBRE": "EBAIS BUENOS AIRES", "TIPO": "E.B.A.I.S", "RECURSOS": "ND", "PROVINCIA": "ALAJUELA", "CANTON": "PALMARES", "DISTRITO": "BUENOS AIRES" }, "geometry": { "type": "Point", "coordinates": [ -84.435949118387612, 10.069427823518939 ] } },
{ "type": "Feature", "properties": { "cat": 33, "NOMBRE": "CLINICA PALMARES", "TIPO": "C.C.S.S", "RECURSOS": "ND", "PROVINCIA": "ALAJUELA", "CANTON": "PALMARES", "DISTRITO": "PALMARES" }, "geometry": { "type": "Point", "coordinates": [ -84.432315493356299, 10.056379513826862 ] } },
{ "type": "Feature", "properties": { "cat": 34, "NOMBRE": "CLINICA SAN PEDRO DE POAS", "TIPO": "C.C.S.S", "RECURSOS": "ND", "PROVINCIA": "ALAJUELA", "CANTON": "POAS", "DISTRITO": "SAN PEDRO" }, "geometry": { "type": "Point", "coordinates": [ -84.244272214169612, 10.076567879109996 ] } },
{ "type": "Feature", "properties": { "cat": 35, "NOMBRE": "CLINICA AGUAS ZARCAS", "TIPO": "C.C.S.S", "RECURSOS": "ND", "PROVINCIA": "ALAJUELA", "CANTON": "SAN CARLOS", "DISTRITO": "AGUAS ZARCAS" }, "geometry": { "type": "Point", "coordinates": [ -84.340499803448864, 10.37394904780076 ] } },
{ "type": "Feature", "properties": { "cat": 36, "NOMBRE": "CLINICA BOCA ARENAL", "TIPO": "C.C.S.S", "RECURSOS": "ND", "PROVINCIA": "ALAJUELA", "CANTON": "SAN CARLOS", "DISTRITO": "CUTRIS" }, "geometry": { "type": "Point", "coordinates": [ -84.478154962970123, 10.527487556762086 ] } },
{ "type": "Feature", "properties": { "cat": 37, "NOMBRE": "CLINICA LA FORTUNA", "TIPO": "C.C.S.S", "RECURSOS": "ND", "PROVINCIA": "ALAJUELA", "CANTON": "SAN CARLOS", "DISTRITO": "FORTUNA" }, "geometry": { "type": "Point", "coordinates": [ -84.646074391489989, 10.471659892170269 ] } },
{ "type": "Feature", "properties": { "cat": 38, "NOMBRE": "CLINICA PITAL", "TIPO": "C.C.S.S", "RECURSOS": "ND", "PROVINCIA": "ALAJUELA", "CANTON": "SAN CARLOS", "DISTRITO": "PITAL" }, "geometry": { "type": "Point", "coordinates": [ -84.272917599356106, 10.453042874353525 ] } },
{ "type": "Feature", "properties": { "cat": 39, "NOMBRE": "EBAIS CEDRAL CIUDAD QUESADA", "TIPO": "E.B.A.I.S", "RECURSOS": "ND", "PROVINCIA": "ALAJUELA", "CANTON": "SAN CARLOS", "DISTRITO": "QUESADA" }, "geometry": { "type": "Point", "coordinates": [ -84.436629768017582, 10.365910286591586 ] } },
{ "type": "Feature", "properties": { "cat": 40, "NOMBRE": "EBAIS SAN JUAN CIUDAD QUESADA", "TIPO": "E.B.A.I.S", "RECURSOS": "ND", "PROVINCIA": "ALAJUELA", "CANTON": "SAN CARLOS", "DISTRITO": "QUESADA" }, "geometry": { "type": "Point", "coordinates": [ -84.402854663978005, 10.342745014474946 ] } },
{ "type": "Feature", "properties": { "cat": 41, "NOMBRE": "EBAIS SAN MARTIN CIUDAD QUESADA", "TIPO": "E.B.A.I.S", "RECURSOS": "ND", "PROVINCIA": "ALAJUELA", "CANTON": "SAN CARLOS", "DISTRITO": "QUESADA" }, "geometry": { "type": "Point", "coordinates": [ -84.431164587537836, 10.326423139507492 ] } },
{ "type": "Feature", "properties": { "cat": 42, "NOMBRE": "CLINICA CIUDAD QUESADA", "TIPO": "C.C.S.S", "RECURSOS": "ND", "PROVINCIA": "ALAJUELA", "CANTON": "SAN CARLOS", "DISTRITO": "QUESADA" }, "geometry": { "type": "Point", "coordinates": [ -84.431164587537836, 10.326423139507492 ] } },
{ "type": "Feature", "properties": { "cat": 43, "NOMBRE": "CLINICA ALTAMIRITA", "TIPO": "C.C.S.S", "RECURSOS": "ND", "PROVINCIA": "ALAJUELA", "CANTON": "SAN CARLOS", "DISTRITO": "VENADO" }, "geometry": { "type": "Point", "coordinates": [ -84.749156597190748, 10.556154981142091 ] } },
{ "type": "Feature", "properties": { "cat": 44, "NOMBRE": "CLINICA VENECIA", "TIPO": "C.C.S.S", "RECURSOS": "ND", "PROVINCIA": "ALAJUELA", "CANTON": "SAN CARLOS", "DISTRITO": "VENECIA" }, "geometry": { "type": "Point", "coordinates": [ -84.273379081988054, 10.352711497373351 ] } },
{ "type": "Feature", "properties": { "cat": 45, "NOMBRE": "CLINICA SAN MATEO", "TIPO": "C.C.S.S", "RECURSOS": "ND", "PROVINCIA": "ALAJUELA", "CANTON": "SAN MATEO", "DISTRITO": "SAN MATEO" }, "geometry": { "type": "Point", "coordinates": [ -84.521040203461212, 9.935446365893275 ] } },
{ "type": "Feature", "properties": { "cat": 46, "NOMBRE": "CLINICA LOS ANGELES", "TIPO": "C.C.S.S", "RECURSOS": "ND", "PROVINCIA": "ALAJUELA", "CANTON": "SAN RAMON", "DISTRITO": "ANGELES" }, "geometry": { "type": "Point", "coordinates": [ -84.474001846044303, 10.133833389805057 ] } },
{ "type": "Feature", "properties": { "cat": 47, "NOMBRE": "EBAIS SAN RAMON", "TIPO": "E.B.A.I.S", "RECURSOS": "ND", "PROVINCIA": "ALAJUELA", "CANTON": "SAN RAMON", "DISTRITO": "SAN RAMON" }, "geometry": { "type": "Point", "coordinates": [ -84.469263594913784, 10.087364045770945 ] } },
{ "type": "Feature", "properties": { "cat": 48, "NOMBRE": "CLINICA DINAMARCA SAN RAMON", "TIPO": "PRIVADA", "RECURSOS": "ND", "PROVINCIA": "ALAJUELA", "CANTON": "SAN RAMON", "DISTRITO": "SAN RAMON" }, "geometry": { "type": "Point", "coordinates": [ -84.469263594913784, 10.087364045770945 ] } },
{ "type": "Feature", "properties": { "cat": 49, "NOMBRE": "CLINICA LOS ANGELES S.A.", "TIPO": "PRIVADA", "RECURSOS": "ND", "PROVINCIA": "ALAJUELA", "CANTON": "SAN RAMON", "DISTRITO": "SAN RAMON" }, "geometry": { "type": "Point", "coordinates": [ -84.469263594913784, 10.087364045770945 ] } },
{ "type": "Feature", "properties": { "cat": 50, "NOMBRE": "CLINICA SAN RAMON", "TIPO": "C.C.S.S", "RECURSOS": "ND", "PROVINCIA": "ALAJUELA", "CANTON": "SAN RAMON", "DISTRITO": "SAN RAMON" }, "geometry": { "type": "Point", "coordinates": [ -84.469263594913784, 10.087364045770945 ] } },
{ "type": "Feature", "properties": { "cat": 51, "NOMBRE": "CLINICA AGUAS CLARAS", "TIPO": "C.C.S.S", "RECURSOS": "ND", "PROVINCIA": "ALAJUELA", "CANTON": "UPALA", "DISTRITO": "AGUAS CLARAS" }, "geometry": { "type": "Point", "coordinates": [ -85.169050557936558, 10.827059006396537 ] } },
{ "type": "Feature", "properties": { "cat": 52, "NOMBRE": "EBAIS UPALA", "TIPO": "E.B.A.I.S", "RECURSOS": "ND", "PROVINCIA": "ALAJUELA", "CANTON": "UPALA", "DISTRITO": "UPALA" }, "geometry": { "type": "Point", "coordinates": [ -85.012864306679546, 10.897541291771196 ] } },
{ "type": "Feature", "properties": { "cat": 53, "NOMBRE": "CLINICA DE VALVERDE VEGA", "TIPO": "C.C.S.S", "RECURSOS": "ND", "PROVINCIA": "ALAJUELA", "CANTON": "VALVERDE VEGA", "DISTRITO": "SARCHI NORTE" }, "geometry": { "type": "Point", "coordinates": [ -84.344884489996915, 10.090604848012839 ] } },
{ "type": "Feature", "properties": { "cat": 54, "NOMBRE": "CLINICA LUISA", "TIPO": "C.C.S.S", "RECURSOS": "ND", "PROVINCIA": "ALAJUELA", "CANTON": "VALVERDE VEGA", "DISTRITO": "SARCHI NORTE" }, "geometry": { "type": "Point", "coordinates": [ -84.338455078081083, 10.119430807587944 ] } },
{ "type": "Feature", "properties": { "cat": 55, "NOMBRE": "CLINICA CERVANTES", "TIPO": "C.C.S.S", "RECURSOS": "ND", "PROVINCIA": "CARTAGO", "CANTON": "ALVARADO", "DISTRITO": "CERVANTES" }, "geometry": { "type": "Point", "coordinates": [ -83.807807010934113, 9.886576470066682 ] } },
{ "type": "Feature", "properties": { "cat": 56, "NOMBRE": "CLINICA PACAYAS", "TIPO": "C.C.S.S", "RECURSOS": "ND", "PROVINCIA": "CARTAGO", "CANTON": "ALVARADO", "DISTRITO": "PACAYAS" }, "geometry": { "type": "Point", "coordinates": [ -83.808849662176613, 9.917601735828111 ] } },
{ "type": "Feature", "properties": { "cat": 57, "NOMBRE": "CLINICA DENTAL AGUA CALIENTE", "TIPO": "C.C.S.S", "RECURSOS": "ND", "PROVINCIA": "CARTAGO", "CANTON": "CARTAGO", "DISTRITO": "AGUACALIENTE" }, "geometry": { "type": "Point", "coordinates": [ -83.916306495248392, 9.841708325900811 ] } },
{ "type": "Feature", "properties": { "cat": 58, "NOMBRE": "CLINICA DENTAL LA CIUDAD DE LOS NINOS", "TIPO": "C.C.S.S", "RECURSOS": "ND", "PROVINCIA": "CARTAGO", "CANTON": "CARTAGO", "DISTRITO": "AGUACALIENTE" }, "geometry": { "type": "Point", "coordinates": [ -83.916325720650818, 9.841684395931013 ] } },
{ "type": "Feature", "properties": { "cat": 59, "NOMBRE": "CLINICA LLANO CORRALITO", "TIPO": "C.C.S.S", "RECURSOS": "ND", "PROVINCIA": "CARTAGO", "CANTON": "CARTAGO", "DISTRITO": "CORRALILLO" }, "geometry": { "type": "Point", "coordinates": [ -84.035808406390231, 9.79448102769565 ] } },
{ "type": "Feature", "properties": { "cat": 60, "NOMBRE": "CLINICA MENOR SANTA ELENA", "TIPO": "C.C.S.S", "RECURSOS": "ND", "PROVINCIA": "CARTAGO", "CANTON": "CARTAGO", "DISTRITO": "CORRALILLO" }, "geometry": { "type": "Point", "coordinates": [ -84.053587953813178, 9.772177012965422 ] } },
{ "type": "Feature", "properties": { "cat": 61, "NOMBRE": "CLINICA SANTA ELENA", "TIPO": "C.C.S.S", "RECURSOS": "ND", "PROVINCIA": "CARTAGO", "CANTON": "CARTAGO", "DISTRITO": "CORRALILLO" }, "geometry": { "type": "Point", "coordinates": [ -84.053575736857226, 9.772167769029362 ] } },
{ "type": "Feature", "properties": { "cat": 62, "NOMBRE": "CLINICA ODONTOLOGICA RICARDO JIMENEZ", "TIPO": "C.C.S.S", "RECURSOS": "ND", "PROVINCIA": "CARTAGO", "CANTON": "CARTAGO", "DISTRITO": "DULCE NOMBRE" }, "geometry": { "type": "Point", "coordinates": [ -83.907964858171553, 9.844670498669132 ] } },
{ "type": "Feature", "properties": { "cat": 63, "NOMBRE": "EBAIS GUADALUPE CARTAGO", "TIPO": "E.B.A.I.S", "RECURSOS": "ND", "PROVINCIA": "CARTAGO", "CANTON": "CARTAGO", "DISTRITO": "GUADALUPE" }, "geometry": { "type": "Point", "coordinates": [ -83.935279048784395, 9.860190133709136 ] } },
{ "type": "Feature", "properties": { "cat": 64, "NOMBRE": "CLINICA NUESTRA SEÑORA DE LOS ANGELES", "TIPO": "PRIVADA", "RECURSOS": "ND", "PROVINCIA": "CARTAGO", "CANTON": "CARTAGO", "DISTRITO": "OCCIDENTAL" }, "geometry": { "type": "Point", "coordinates": [ -83.927579835428688, 9.862432254597319 ] } },
{ "type": "Feature", "properties": { "cat": 65, "NOMBRE": "CLINICA DENTAL DE CARTAGO", "TIPO": "C.C.S.S", "RECURSOS": "ND", "PROVINCIA": "CARTAGO", "CANTON": "CARTAGO", "DISTRITO": "OCCIDENTAL" }, "geometry": { "type": "Point", "coordinates": [ -83.927579835428688, 9.862432254597319 ] } },
{ "type": "Feature", "properties": { "cat": 66, "NOMBRE": "CLINICA DINAMARCA CARTAGO", "TIPO": "PRIVADA", "RECURSOS": "ND", "PROVINCIA": "CARTAGO", "CANTON": "CARTAGO", "DISTRITO": "ORIENTAL" }, "geometry": { "type": "Point", "coordinates": [ -83.920483835903127, 9.863932521626424 ] } },
{ "type": "Feature", "properties": { "cat": 67, "NOMBRE": "CLINICA OROSI", "TIPO": "PRIVADA", "RECURSOS": "ND", "PROVINCIA": "CARTAGO", "CANTON": "CARTAGO", "DISTRITO": "ORIENTAL" }, "geometry": { "type": "Point", "coordinates": [ -83.920483835903127, 9.863932521626424 ] } },
{ "type": "Feature", "properties": { "cat": 68, "NOMBRE": "CLINICA SAN FRANCISCO DE ASIS", "TIPO": "PRIVADA", "RECURSOS": "ND", "PROVINCIA": "CARTAGO", "CANTON": "CARTAGO", "DISTRITO": "ORIENTAL" }, "geometry": { "type": "Point", "coordinates": [ -83.920483835903127, 9.863932521626424 ] } },
{ "type": "Feature", "properties": { "cat": 69, "NOMBRE": "CLINICA CARTAGO ING. ALFREDO VOLIO JIMENEZ", "TIPO": "C.C.S.S", "RECURSOS": "ND", "PROVINCIA": "CARTAGO", "CANTON": "CARTAGO", "DISTRITO": "ORIENTAL" }, "geometry": { "type": "Point", "coordinates": [ -83.920455345775991, 9.86393248465208 ] } },
{ "type": "Feature", "properties": { "cat": 70, "NOMBRE": "CLINICA TIERRA BLANCA", "TIPO": "C.C.S.S", "RECURSOS": "ND", "PROVINCIA": "CARTAGO", "CANTON": "CARTAGO", "DISTRITO": "TIERRA BLANCA" }, "geometry": { "type": "Point", "coordinates": [ -83.893211162492506, 9.915324994446435 ] } },
{ "type": "Feature", "properties": { "cat": 71, "NOMBRE": "CLINICA SANTA ELENA", "TIPO": "C.C.S.S", "RECURSOS": "ND", "PROVINCIA": "CARTAGO", "CANTON": "EL GUARCO", "DISTRITO": "SAN ISIDRO" }, "geometry": { "type": "Point", "coordinates": [ -83.952129471757146, 9.828716413831303 ] } },
{ "type": "Feature", "properties": { "cat": 72, "NOMBRE": "CLINICA JUAN VIÑAS", "TIPO": "C.C.S.S", "RECURSOS": "ND", "PROVINCIA": "CARTAGO", "CANTON": "JIMENEZ", "DISTRITO": "JUAN VIÑAS" }, "geometry": { "type": "Point", "coordinates": [ -83.746432902762265, 9.889807176486563 ] } },
{ "type": "Feature", "properties": { "cat": 73, "NOMBRE": "CLINICA PEJIBAYE", "TIPO": "C.C.S.S", "RECURSOS": "ND", "PROVINCIA": "CARTAGO", "CANTON": "JIMENEZ", "DISTRITO": "PEJIBAYE" }, "geometry": { "type": "Point", "coordinates": [ -83.704370581027717, 9.812531471422696 ] } },
{ "type": "Feature", "properties": { "cat": 74, "NOMBRE": "CLINICA TUCURRIQUE", "TIPO": "C.C.S.S", "RECURSOS": "ND", "PROVINCIA": "CARTAGO", "CANTON": "JIMENEZ", "DISTRITO": "TUCURRIQUE" }, "geometry": { "type": "Point", "coordinates": [ -83.722945251448451, 9.852478547468021 ] } },
{ "type": "Feature", "properties": { "cat": 75, "NOMBRE": "EBAIS TUCURRIQUE", "TIPO": "E.B.A.I.S", "RECURSOS": "ND", "PROVINCIA": "CARTAGO", "CANTON": "JIMENEZ", "DISTRITO": "TURCURRIQUE" }, "geometry": { "type": "Point", "coordinates": [ -83.722945251448451, 9.852478547468021 ] } },
{ "type": "Feature", "properties": { "cat": 76, "NOMBRE": "CLINICA LOS SAUCES", "TIPO": "PRIVADA", "RECURSOS": "ND", "PROVINCIA": "CARTAGO", "CANTON": "LA UNION", "DISTRITO": "TRES RIOS" }, "geometry": { "type": "Point", "coordinates": [ -83.984878560056444, 9.907009813842 ] } },
{ "type": "Feature", "properties": { "cat": 77, "NOMBRE": "CLINICA TRES RIOS", "TIPO": "C.C.S.S", "RECURSOS": "ND", "PROVINCIA": "CARTAGO", "CANTON": "LA UNION", "DISTRITO": "TRES RIOS" }, "geometry": { "type": "Point", "coordinates": [ -83.984878560056444, 9.907009813842 ] } },
{ "type": "Feature", "properties": { "cat": 78, "NOMBRE": "CLINICA COT", "TIPO": "C.C.S.S", "RECURSOS": "ND", "PROVINCIA": "CARTAGO", "CANTON": "OREAMUNO", "DISTRITO": "COT" }, "geometry": { "type": "Point", "coordinates": [ -83.87249849513303, 9.895391405662446 ] } },
{ "type": "Feature", "properties": { "cat": 79, "NOMBRE": "CLINICA SAN PABLO", "TIPO": "C.C.S.S", "RECURSOS": "ND", "PROVINCIA": "CARTAGO", "CANTON": "OREAMUNO", "DISTRITO": "SANTA ROSA" }, "geometry": { "type": "Point", "coordinates": [ -83.835035175600879, 9.936412163646548 ] } },
{ "type": "Feature", "properties": { "cat": 80, "NOMBRE": "CLINICA CACHI", "TIPO": "C.C.S.S", "RECURSOS": "ND", "PROVINCIA": "CARTAGO", "CANTON": "PARAISO", "DISTRITO": "CACHI" }, "geometry": { "type": "Point", "coordinates": [ -83.802814417306308, 9.825989752586921 ] } },
{ "type": "Feature", "properties": { "cat": 81, "NOMBRE": "CLINICA DENTAL ESCOLAR OROSI", "TIPO": "C.C.S.S", "RECURSOS": "ND", "PROVINCIA": "CARTAGO", "CANTON": "PARAISO", "DISTRITO": "OROSI" }, "geometry": { "type": "Point", "coordinates": [ -83.855597371091605, 9.797317730119255 ] } },
{ "type": "Feature", "properties": { "cat": 82, "NOMBRE": "CLINICA OROSI", "TIPO": "C.C.S.S", "RECURSOS": "ND", "PROVINCIA": "CARTAGO", "CANTON": "PARAISO", "DISTRITO": "OROSI" }, "geometry": { "type": "Point", "coordinates": [ -83.855597371091605, 9.797317730119255 ] } },
{ "type": "Feature", "properties": { "cat": 83, "NOMBRE": "EBAIS PARAISO", "TIPO": "E.B.A.I.S", "RECURSOS": "ND", "PROVINCIA": "CARTAGO", "CANTON": "PARAISO", "DISTRITO": "PARAISO" }, "geometry": { "type": "Point", "coordinates": [ -83.865557360470561, 9.838574522892172 ] } },
{ "type": "Feature", "properties": { "cat": 84, "NOMBRE": "CLINICA PARAISO", "TIPO": "C.C.S.S", "RECURSOS": "ND", "PROVINCIA": "CARTAGO", "CANTON": "PARAISO", "DISTRITO": "PARAISO" }, "geometry": { "type": "Point", "coordinates": [ -83.865557360470561, 9.838574522892172 ] } },
{ "type": "Feature", "properties": { "cat": 85, "NOMBRE": "CLINICA ATIRRO", "TIPO": "C.C.S.S", "RECURSOS": "ND", "PROVINCIA": "CARTAGO", "CANTON": "TURRIALBA", "DISTRITO": "LA SUIZA" }, "geometry": { "type": "Point", "coordinates": [ -83.648202752631406, 9.835931755805992 ] } },
{ "type": "Feature", "properties": { "cat": 86, "NOMBRE": "CLINICA LA SUIZA", "TIPO": "C.C.S.S", "RECURSOS": "ND", "PROVINCIA": "CARTAGO", "CANTON": "TURRIALBA", "DISTRITO": "LA SUIZA" }, "geometry": { "type": "Point", "coordinates": [ -83.613381950277528, 9.852166015546112 ] } },
{ "type": "Feature", "properties": { "cat": 87, "NOMBRE": "CLINICA PACAYITAS", "TIPO": "C.C.S.S", "RECURSOS": "ND", "PROVINCIA": "CARTAGO", "CANTON": "TURRIALBA", "DISTRITO": "LA SUIZA" }, "geometry": { "type": "Point", "coordinates": [ -83.58429888400704, 9.886039769098392 ] } },
{ "type": "Feature", "properties": { "cat": 88, "NOMBRE": "CLINICA PAVONES TURRIALBA", "TIPO": "C.C.S.S", "RECURSOS": "ND", "PROVINCIA": "CARTAGO", "CANTON": "TURRIALBA", "DISTRITO": "PAVONES" }, "geometry": { "type": "Point", "coordinates": [ -83.622683539691579, 9.903287552292481 ] } },
{ "type": "Feature", "properties": { "cat": 89, "NOMBRE": "CLINICA PERALTA", "TIPO": "C.C.S.S", "RECURSOS": "ND", "PROVINCIA": "CARTAGO", "CANTON": "TURRIALBA", "DISTRITO": "PERALTA" }, "geometry": { "type": "Point", "coordinates": [ -83.612112625667919, 9.967923718577939 ] } },
{ "type": "Feature", "properties": { "cat": 90, "NOMBRE": "EBAIS SANTA CRUZ", "TIPO": "E.B.A.I.S", "RECURSOS": "ND", "PROVINCIA": "CARTAGO", "CANTON": "TURRIALBA", "DISTRITO": "SANTA CRUZ" }, "geometry": { "type": "Point", "coordinates": [ -83.731451340417607, 9.966768107255163 ] } },
{ "type": "Feature", "properties": { "cat": 91, "NOMBRE": "CLINICA SANTA CRUZ", "TIPO": "C.C.S.S", "RECURSOS": "ND", "PROVINCIA": "CARTAGO", "CANTON": "TURRIALBA", "DISTRITO": "SANTA CRUZ" }, "geometry": { "type": "Point", "coordinates": [ -83.731455990113844, 9.966737827093949 ] } },
{ "type": "Feature", "properties": { "cat": 92, "NOMBRE": "CLINICA AQUIARES", "TIPO": "C.C.S.S", "RECURSOS": "ND", "PROVINCIA": "CARTAGO", "CANTON": "TURRIALBA", "DISTRITO": "SANTA ROSA" }, "geometry": { "type": "Point", "coordinates": [ -83.719388101570914, 9.940153167427876 ] } },
{ "type": "Feature", "properties": { "cat": 93, "NOMBRE": "CLINICA SANTA TERESITA", "TIPO": "C.C.S.S", "RECURSOS": "ND", "PROVINCIA": "CARTAGO", "CANTON": "TURRIALBA", "DISTRITO": "SANTA TERESITA" }, "geometry": { "type": "Point", "coordinates": [ -83.644801252122548, 9.975162752908579 ] } },
{ "type": "Feature", "properties": { "cat": 94, "NOMBRE": "CLINICA TURRIALBA", "TIPO": "C.C.S.S", "RECURSOS": "ND", "PROVINCIA": "CARTAGO", "CANTON": "TURRIALBA", "DISTRITO": "TURRIALBA" }, "geometry": { "type": "Point", "coordinates": [ -83.684426752815511, 9.906413026119917 ] } },
{ "type": "Feature", "properties": { "cat": 95, "NOMBRE": "EBAIS CENTRAL B TURRIALBA", "TIPO": "E.B.A.I.S", "RECURSOS": "ND", "PROVINCIA": "CARTAGO", "CANTON": "TURRIALBA", "DISTRITO": "TURRIALBA" }, "geometry": { "type": "Point", "coordinates": [ -83.684426656827398, 9.906412719338601 ] } },
{ "type": "Feature", "properties": { "cat": 96, "NOMBRE": "EBAIS TURRIALBA", "TIPO": "E.B.A.I.S", "RECURSOS": "ND", "PROVINCIA": "CARTAGO", "CANTON": "TURRIALBA", "DISTRITO": "TURRIALBA" }, "geometry": { "type": "Point", "coordinates": [ -83.684426802489057, 9.906412918685003 ] } },
{ "type": "Feature", "properties": { "cat": 97, "NOMBRE": "CLINICA CLODOMIRO PICADO", "TIPO": "C.C.S.S", "RECURSOS": "ND", "PROVINCIA": "CARTAGO", "CANTON": "TURRIALBA", "DISTRITO": "TURRIALBA" }, "geometry": { "type": "Point", "coordinates": [ -83.684426656355129, 9.906412946963927 ] } },
{ "type": "Feature", "properties": { "cat": 98, "NOMBRE": "CLINICA DEL I.N.S.", "TIPO": "C.C.S.S", "RECURSOS": "ND", "PROVINCIA": "CARTAGO", "CANTON": "TURRIALBA", "DISTRITO": "TURRIALBA" }, "geometry": { "type": "Point", "coordinates": [ -83.684426529251965, 9.906412820417442 ] } },
{ "type": "Feature", "properties": { "cat": 99, "NOMBRE": "CLINICA FLORENCIA DE TURRIALBA", "TIPO": "C.C.S.S", "RECURSOS": "ND", "PROVINCIA": "CARTAGO", "CANTON": "TURRIALBA", "DISTRITO": "TURRIALBA" }, "geometry": { "type": "Point", "coordinates": [ -83.673746665594919, 9.87303352435335 ] } },
{ "type": "Feature", "properties": { "cat": 100, "NOMBRE": "CLINICA COLORADO ABANGARES", "TIPO": "C.C.S.S", "RECURSOS": "ND", "PROVINCIA": "GUANACASTE", "CANTON": "ABANGARES", "DISTRITO": "COLORADO" }, "geometry": { "type": "Point", "coordinates": [ -85.109637243902526, 10.18435931842877 ] } },
{ "type": "Feature", "properties": { "cat": 101, "NOMBRE": "EBAIS LAS JUNTAS DE ABANGARES", "TIPO": "E.B.A.I.S", "RECURSOS": "ND", "PROVINCIA": "GUANACASTE", "CANTON": "ABANGARES", "DISTRITO": "LAS JUNTAS" }, "geometry": { "type": "Point", "coordinates": [ -84.958952819735217, 10.280217654303087 ] } },
{ "type": "Feature", "properties": { "cat": 102, "NOMBRE": "CLINICA LAS JUNTAS", "TIPO": "C.C.S.S", "RECURSOS": "ND", "PROVINCIA": "GUANACASTE", "CANTON": "ABANGARES", "DISTRITO": "LAS JUNTAS" }, "geometry": { "type": "Point", "coordinates": [ -84.958971767842712, 10.28017143846748 ] } },
{ "type": "Feature", "properties": { "cat": 103, "NOMBRE": "CLINICA ABANGARES", "TIPO": "C.C.S.S", "RECURSOS": "ND", "PROVINCIA": "GUANACASTE", "CANTON": "ABANGARES", "DISTRITO": "SAN JUAN" }, "geometry": { "type": "Point", "coordinates": [ -84.9457577486492, 10.262373944005134 ] } },
{ "type": "Feature", "properties": { "cat": 104, "NOMBRE": "EBAIS ABANGARES", "TIPO": "E.B.A.I.S", "RECURSOS": "ND", "PROVINCIA": "GUANACASTE", "CANTON": "ABANGARES", "DISTRITO": "SAN JUAN" }, "geometry": { "type": "Point", "coordinates": [ -84.9457577486492, 10.262373944005134 ] } },
{ "type": "Feature", "properties": { "cat": 105, "NOMBRE": "CLINICA BAGACES", "TIPO": "C.C.S.S", "RECURSOS": "ND", "PROVINCIA": "GUANACASTE", "CANTON": "BAGACES", "DISTRITO": "BAGACES" }, "geometry": { "type": "Point", "coordinates": [ -85.254783992734886, 10.526481375103835 ] } },
{ "type": "Feature", "properties": { "cat": 106, "NOMBRE": "CLINICA LA FORTUNA DE BAGACES", "TIPO": "C.C.S.S", "RECURSOS": "ND", "PROVINCIA": "GUANACASTE", "CANTON": "BAGACES", "DISTRITO": "FORTUNA" }, "geometry": { "type": "Point", "coordinates": [ -85.19880008573891, 10.674800126625783 ] } },
{ "type": "Feature", "properties": { "cat": 107, "NOMBRE": "CLINICA GUAYABO DE BAGACES", "TIPO": "C.C.S.S", "RECURSOS": "ND", "PROVINCIA": "GUANACASTE", "CANTON": "BAGACES", "DISTRITO": "MOGOTE" }, "geometry": { "type": "Point", "coordinates": [ -85.22518914223113, 10.708730905449501 ] } },
{ "type": "Feature", "properties": { "cat": 108, "NOMBRE": "CLINICA BEBEDERO", "TIPO": "C.C.S.S", "RECURSOS": "ND", "PROVINCIA": "GUANACASTE", "CANTON": "CAÑAS", "DISTRITO": "BEBEDERO" }, "geometry": { "type": "Point", "coordinates": [ -85.194048603955309, 10.369471896324184 ] } },
{ "type": "Feature", "properties": { "cat": 109, "NOMBRE": "CLINICA DE CAÑAS", "TIPO": "C.C.S.S", "RECURSOS": "ND", "PROVINCIA": "GUANACASTE", "CANTON": "CAÑAS", "DISTRITO": "CAÑAS" }, "geometry": { "type": "Point", "coordinates": [ -85.091264838248222, 10.426608218696151 ] } },
{ "type": "Feature", "properties": { "cat": 110, "NOMBRE": "CLINICA FILADELFIA", "TIPO": "C.C.S.S", "RECURSOS": "ND", "PROVINCIA": "GUANACASTE", "CANTON": "CARRILLO", "DISTRITO": "FILADELFIA" }, "geometry": { "type": "Point", "coordinates": [ -85.549351460519702, 10.445077869524653 ] } },
{ "type": "Feature", "properties": { "cat": 111, "NOMBRE": "CLINICA PASO DEL TEMPISQUE", "TIPO": "C.C.S.S", "RECURSOS": "ND", "PROVINCIA": "GUANACASTE", "CANTON": "CARRILLO", "DISTRITO": "PALMIRA" }, "geometry": { "type": "Point", "coordinates": [ -85.572021224050957, 10.498383650013281 ] } },
{ "type": "Feature", "properties": { "cat": 112, "NOMBRE": "CLINICA SARDINAL", "TIPO": "C.C.S.S", "RECURSOS": "ND", "PROVINCIA": "GUANACASTE", "CANTON": "CARRILLO", "DISTRITO": "SARDINAL" }, "geometry": { "type": "Point", "coordinates": [ -85.646660093953997, 10.515895503644071 ] } },
{ "type": "Feature", "properties": { "cat": 113, "NOMBRE": "EBAIS HOJANCHA", "TIPO": "E.B.A.I.S", "RECURSOS": "ND", "PROVINCIA": "GUANACASTE", "CANTON": "HOJANCHA", "DISTRITO": "HOJANCHA" }, "geometry": { "type": "Point", "coordinates": [ -85.417189863210396, 10.05770696395844 ] } },
{ "type": "Feature", "properties": { "cat": 114, "NOMBRE": "CLINICA HOJANCHA", "TIPO": "C.C.S.S", "RECURSOS": "ND", "PROVINCIA": "GUANACASTE", "CANTON": "HOJANCHA", "DISTRITO": "HOJANCHA" }, "geometry": { "type": "Point", "coordinates": [ -85.417189863210396, 10.05770696395844 ] } },
{ "type": "Feature", "properties": { "cat": 115, "NOMBRE": "EBAIS LA CRUZ", "TIPO": "E.B.A.I.S", "RECURSOS": "ND", "PROVINCIA": "GUANACASTE", "CANTON": "LA CRUZ", "DISTRITO": "LA CRUZ" }, "geometry": { "type": "Point", "coordinates": [ -85.63349810394584, 11.072399319955144 ] } },
{ "type": "Feature", "properties": { "cat": 116, "NOMBRE": "CLINICA LA CRUZ", "TIPO": "C.C.S.S", "RECURSOS": "ND", "PROVINCIA": "GUANACASTE", "CANTON": "LA CRUZ", "DISTRITO": "LA CRUZ" }, "geometry": { "type": "Point", "coordinates": [ -85.63349810394584, 11.072399319955144 ] } },
{ "type": "Feature", "properties": { "cat": 117, "NOMBRE": "CLINICA CHOROTEGA", "TIPO": "PRIVADA", "RECURSOS": "ND", "PROVINCIA": "GUANACASTE", "CANTON": "LIBERIA", "DISTRITO": "LIBERIA" }, "geometry": { "type": "Point", "coordinates": [ -85.437448902466372, 10.629914806860063 ] } },
{ "type": "Feature", "properties": { "cat": 118, "NOMBRE": "CLINICA SAN GABRIEL", "TIPO": "PRIVADA", "RECURSOS": "ND", "PROVINCIA": "GUANACASTE", "CANTON": "LIBERIA", "DISTRITO": "LIBERIA" }, "geometry": { "type": "Point", "coordinates": [ -85.437448902466372, 10.629914806860063 ] } },
{ "type": "Feature", "properties": { "cat": 119, "NOMBRE": "CLINICA SAN MARINO", "TIPO": "PRIVADA", "RECURSOS": "ND", "PROVINCIA": "GUANACASTE", "CANTON": "LIBERIA", "DISTRITO": "LIBERIA" }, "geometry": { "type": "Point", "coordinates": [ -85.437448902466372, 10.629914806860063 ] } },
{ "type": "Feature", "properties": { "cat": 120, "NOMBRE": "CLINICA LIBERIA", "TIPO": "C.C.S.S", "RECURSOS": "ND", "PROVINCIA": "GUANACASTE", "CANTON": "LIBERIA", "DISTRITO": "LIBERIA" }, "geometry": { "type": "Point", "coordinates": [ -85.437448902466372, 10.629914806860063 ] } },
{ "type": "Feature", "properties": { "cat": 121, "NOMBRE": "CLINICA NANDAYURE", "TIPO": "C.C.S.S", "RECURSOS": "ND", "PROVINCIA": "GUANACASTE", "CANTON": "NANDAYURE", "DISTRITO": "CARMONA" }, "geometry": { "type": "Point", "coordinates": [ -85.253200704915784, 9.996375174935576 ] } },
{ "type": "Feature", "properties": { "cat": 122, "NOMBRE": "CLINICA NICOYA", "TIPO": "C.C.S.S", "RECURSOS": "ND", "PROVINCIA": "GUANACASTE", "CANTON": "NICOYA", "DISTRITO": "NICOYA" }, "geometry": { "type": "Point", "coordinates": [ -85.453308363291299, 10.142792074986879 ] } },
{ "type": "Feature", "properties": { "cat": 123, "NOMBRE": "CLINICA SAMARA", "TIPO": "C.C.S.S", "RECURSOS": "ND", "PROVINCIA": "GUANACASTE", "CANTON": "NICOYA", "DISTRITO": "SAMARA" }, "geometry": { "type": "Point", "coordinates": [ -85.527625994966655, 9.881731701038303 ] } },
{ "type": "Feature", "properties": { "cat": 124, "NOMBRE": "EBAIS NICOYA", "TIPO": "E.B.A.I.S", "RECURSOS": "ND", "PROVINCIA": "GUANACASTE", "CANTON": "NICOYA", "DISTRITO": "NICOYA" }, "geometry": { "type": "Point", "coordinates": [ -85.453312342137437, 10.142792060986828 ] } },
{ "type": "Feature", "properties": { "cat": 125, "NOMBRE": "CLINICA DE CARTAGENA", "TIPO": "C.C.S.S", "RECURSOS": "ND", "PROVINCIA": "GUANACASTE", "CANTON": "SANTA CRUZ", "DISTRITO": "CARTAGENA" }, "geometry": { "type": "Point", "coordinates": [ -85.673516774376154, 10.382198566820302 ] } },
{ "type": "Feature", "properties": { "cat": 126, "NOMBRE": "EBAIS SANTA CRUZ", "TIPO": "E.B.A.I.S", "RECURSOS": "ND", "PROVINCIA": "GUANACASTE", "CANTON": "SANTA CRUZ", "DISTRITO": "SANTA CRUZ" }, "geometry": { "type": "Point", "coordinates": [ -85.584733139409508, 10.265480979119737 ] } },
{ "type": "Feature", "properties": { "cat": 127, "NOMBRE": "CLINICA SANTA CRUZ", "TIPO": "C.C.S.S", "RECURSOS": "ND", "PROVINCIA": "GUANACASTE", "CANTON": "SANTA CRUZ", "DISTRITO": "SANTA CRUZ" }, "geometry": { "type": "Point", "coordinates": [ -85.584728290455345, 10.265469638499239 ] } },
{ "type": "Feature", "properties": { "cat": 128, "NOMBRE": "CLINICA 27 DE ABRIL", "TIPO": "C.C.S.S", "RECURSOS": "ND", "PROVINCIA": "GUANACASTE", "CANTON": "SANTA CRUZ", "DISTRITO": "VEINTISIETE DE ABRIL" }, "geometry": { "type": "Point", "coordinates": [ -85.707430522190279, 10.245634110928869 ] } },
{ "type": "Feature", "properties": { "cat": 129, "NOMBRE": "CLINICA NUEVO ARENAL", "TIPO": "C.C.S.S", "RECURSOS": "ND", "PROVINCIA": "GUANACASTE", "CANTON": "TILARAN", "DISTRITO": "ARENAL" }, "geometry": { "type": "Point", "coordinates": [ -84.894360198812961, 10.542476960451236 ] } },
{ "type": "Feature", "properties": { "cat": 130, "NOMBRE": "CLINICA TILARAN", "TIPO": "C.C.S.S", "RECURSOS": "ND", "PROVINCIA": "GUANACASTE", "CANTON": "TILARAN", "DISTRITO": "TILARAN" }, "geometry": { "type": "Point", "coordinates": [ -84.967100852076939, 10.470260871830675 ] } },
{ "type": "Feature", "properties": { "cat": 131, "NOMBRE": "CLINICA  DE BARVA", "TIPO": "C.C.S.S", "RECURSOS": "ND", "PROVINCIA": "HEREDIA", "CANTON": "BARVA", "DISTRITO": "BARVA" }, "geometry": { "type": "Point", "coordinates": [ -84.123131315401821, 10.020966747963046 ] } },
{ "type": "Feature", "properties": { "cat": 132, "NOMBRE": "CLINICA SAN PEDRO DE BARVA", "TIPO": "C.C.S.S", "RECURSOS": "ND", "PROVINCIA": "HEREDIA", "CANTON": "BARVA", "DISTRITO": "SAN PEDRO" }, "geometry": { "type": "Point", "coordinates": [ -84.137729857181156, 10.029535240308249 ] } },
{ "type": "Feature", "properties": { "cat": 133, "NOMBRE": "EBAIS SAN JOAQUIN DE FLORES", "TIPO": "E.B.A.I.S", "RECURSOS": "ND", "PROVINCIA": "HEREDIA", "CANTON": "FLORES", "DISTRITO": "SAN JOAQUIN" }, "geometry": { "type": "Point", "coordinates": [ -84.15123748710694, 10.003536628218958 ] } },
{ "type": "Feature", "properties": { "cat": 134, "NOMBRE": "CLINICA JORGE VOLIO JIMENEZ", "TIPO": "C.C.S.S", "RECURSOS": "ND", "PROVINCIA": "HEREDIA", "CANTON": "FLORES", "DISTRITO": "SAN JOAQUIN" }, "geometry": { "type": "Point", "coordinates": [ -84.151244808962744, 10.003529710958247 ] } },
{ "type": "Feature", "properties": { "cat": 135, "NOMBRE": "CLINICA LOS LAGOS", "TIPO": "C.C.S.S", "RECURSOS": "ND", "PROVINCIA": "HEREDIA", "CANTON": "HEREDIA", "DISTRITO": "SAN FRANCISCO" }, "geometry": { "type": "Point", "coordinates": [ -84.111967732328068, 9.978630419885958 ] } },
{ "type": "Feature", "properties": { "cat": 136, "NOMBRE": "EBAIS HEREDIA", "TIPO": "E.B.A.I.S", "RECURSOS": "ND", "PROVINCIA": "HEREDIA", "CANTON": "HEREDIA", "DISTRITO": "HEREDIA" }, "geometry": { "type": "Point", "coordinates": [ -84.116347109418868, 9.998637616834436 ] } },
{ "type": "Feature", "properties": { "cat": 137, "NOMBRE": "CLINICA LA INMACULADA S.A.", "TIPO": "PRIVADA", "RECURSOS": "ND", "PROVINCIA": "HEREDIA", "CANTON": "HEREDIA", "DISTRITO": "HEREDIA" }, "geometry": { "type": "Point", "coordinates": [ -84.116347109418868, 9.998637616834436 ] } },
{ "type": "Feature", "properties": { "cat": 138, "NOMBRE": "CLINICA MEDICA HEREDIANA", "TIPO": "PRIVADA", "RECURSOS": "ND", "PROVINCIA": "HEREDIA", "CANTON": "HEREDIA", "DISTRITO": "HEREDIA" }, "geometry": { "type": "Point", "coordinates": [ -84.116347109418868, 9.998637616834436 ] } },
{ "type": "Feature", "properties": { "cat": 139, "NOMBRE": "CLINICA MEDICA MONTE SION", "TIPO": "PRIVADA", "RECURSOS": "ND", "PROVINCIA": "HEREDIA", "CANTON": "HEREDIA", "DISTRITO": "HEREDIA" }, "geometry": { "type": "Point", "coordinates": [ -84.116347109418868, 9.998637616834436 ] } },
{ "type": "Feature", "properties": { "cat": 140, "NOMBRE": "CLINICA MEDICO QUIRURGICA LA INMACULADA", "TIPO": "PRIVADA", "RECURSOS": "ND", "PROVINCIA": "HEREDIA", "CANTON": "HEREDIA", "DISTRITO": "HEREDIA" }, "geometry": { "type": "Point", "coordinates": [ -84.116347109418868, 9.998637616834436 ] } },
{ "type": "Feature", "properties": { "cat": 141, "NOMBRE": "CLINICA PERERA LTDA.", "TIPO": "PRIVADA", "RECURSOS": "ND", "PROVINCIA": "HEREDIA", "CANTON": "HEREDIA", "DISTRITO": "HEREDIA" }, "geometry": { "type": "Point", "coordinates": [ -84.116361899336368, 9.998637626916375 ] } },
{ "type": "Feature", "properties": { "cat": 142, "NOMBRE": "CLINICA FRANCISCO BOLANOS", "TIPO": "C.C.S.S", "RECURSOS": "ND", "PROVINCIA": "HEREDIA", "CANTON": "HEREDIA", "DISTRITO": "HEREDIA" }, "geometry": { "type": "Point", "coordinates": [ -84.116347114504535, 9.998630286590014 ] } },
{ "type": "Feature", "properties": { "cat": 143, "NOMBRE": "CLINICA SAN RAFAEL DE HEREDIA", "TIPO": "C.C.S.S", "RECURSOS": "ND", "PROVINCIA": "HEREDIA", "CANTON": "SAN RAFAEL", "DISTRITO": "SAN RAFAEL" }, "geometry": { "type": "Point", "coordinates": [ -84.098630488994019, 10.014608356964599 ] } },
{ "type": "Feature", "properties": { "cat": 144, "NOMBRE": "CLINICA ESCOBAR PARACITO", "TIPO": "C.C.S.S", "RECURSOS": "ND", "PROVINCIA": "HEREDIA", "CANTON": "SANTO DOMINGO", "DISTRITO": "PARACITO" }, "geometry": { "type": "Point", "coordinates": [ -84.025631664807122, 9.993719091039063 ] } },
{ "type": "Feature", "properties": { "cat": 145, "NOMBRE": "EBAIS BO. LOS ANGELES STO DOMINGO", "TIPO": "E.B.A.I.S", "RECURSOS": "ND", "PROVINCIA": "HEREDIA", "CANTON": "SANTO DOMINGO", "DISTRITO": "SANTO DOMINGO" }, "geometry": { "type": "Point", "coordinates": [ -84.090459806148203, 9.98005679909037 ] } },
{ "type": "Feature", "properties": { "cat": 146, "NOMBRE": "CLINICA SANTO DOMINGO HEREDIA", "TIPO": "C.C.S.S", "RECURSOS": "ND", "PROVINCIA": "HEREDIA", "CANTON": "SANTO DOMINGO", "DISTRITO": "SANTO DOMINGO" }, "geometry": { "type": "Point", "coordinates": [ -84.090459806148203, 9.98005679909037 ] } },
{ "type": "Feature", "properties": { "cat": 147, "NOMBRE": "CLINICA HORQUETAS DE SARAPIQUI", "TIPO": "C.C.S.S", "RECURSOS": "ND", "PROVINCIA": "HEREDIA", "CANTON": "SARAPIQUI", "DISTRITO": "HORQUETAS" }, "geometry": { "type": "Point", "coordinates": [ -83.952454533434761, 10.335091534403206 ] } },
{ "type": "Feature", "properties": { "cat": 148, "NOMBRE": "CLINICA RIO FRIO", "TIPO": "C.C.S.S", "RECURSOS": "ND", "PROVINCIA": "HEREDIA", "CANTON": "SARAPIQUI", "DISTRITO": "HORQUETAS" }, "geometry": { "type": "Point", "coordinates": [ -83.952447202824473, 10.335099108100751 ] } },
{ "type": "Feature", "properties": { "cat": 149, "NOMBRE": "CLINICA LA VIRGEN", "TIPO": "C.C.S.S", "RECURSOS": "ND", "PROVINCIA": "HEREDIA", "CANTON": "SARAPIQUI", "DISTRITO": "LA VIRGEN" }, "geometry": { "type": "Point", "coordinates": [ -84.13545228424006, 10.400033265661849 ] } },
{ "type": "Feature", "properties": { "cat": 150, "NOMBRE": "CLINICA PUERTO VIEJO", "TIPO": "C.C.S.S", "RECURSOS": "ND", "PROVINCIA": "HEREDIA", "CANTON": "SARAPIQUI", "DISTRITO": "PUERTO VIEJO" }, "geometry": { "type": "Point", "coordinates": [ -84.007319745172282, 10.454659838559149 ] } },
{ "type": "Feature", "properties": { "cat": 151, "NOMBRE": "CLINICA GUACIMO", "TIPO": "C.C.S.S", "RECURSOS": "5 CIRUJANOS", "PROVINCIA": "LIMON", "CANTON": "GUACIMO", "DISTRITO": "GUACIMO" }, "geometry": { "type": "Point", "coordinates": [ -83.68085746597329, 10.2087227427235 ] } },
{ "type": "Feature", "properties": { "cat": 152, "NOMBRE": "CLINICA POCORA", "TIPO": "C.C.S.S", "RECURSOS": "1 CIRUJANO", "PROVINCIA": "LIMON", "CANTON": "GUACIMO", "DISTRITO": "POCORA" }, "geometry": { "type": "Point", "coordinates": [ -83.604009358474656, 10.172417641461699 ] } },
{ "type": "Feature", "properties": { "cat": 153, "NOMBRE": "CLINICA SANTA LUCIA", "TIPO": "PRIVADA", "RECURSOS": "ND", "PROVINCIA": "LIMON", "CANTON": "LIMON", "DISTRITO": "LIMON" }, "geometry": { "type": "Point", "coordinates": [ -83.029834960095883, 9.991665740253273 ] } },
{ "type": "Feature", "properties": { "cat": 154, "NOMBRE": "CLINICA SOMEDICA S.A.", "TIPO": "PRIVADA", "RECURSOS": "ND", "PROVINCIA": "LIMON", "CANTON": "LIMON", "DISTRITO": "LIMON" }, "geometry": { "type": "Point", "coordinates": [ -83.029831128772514, 9.991656743726711 ] } },
{ "type": "Feature", "properties": { "cat": 155, "NOMBRE": "CLINICA LA FORTUNA", "TIPO": "C.C.S.S", "RECURSOS": "2 CIRUJANOS", "PROVINCIA": "LIMON", "CANTON": "LIMON", "DISTRITO": "LIMON" }, "geometry": { "type": "Point", "coordinates": [ -83.029831128772514, 9.991656743726711 ] } },
{ "type": "Feature", "properties": { "cat": 156, "NOMBRE": "CLINICA LIMON", "TIPO": "C.C.S.S", "RECURSOS": "ND", "PROVINCIA": "LIMON", "CANTON": "LIMON", "DISTRITO": "LIMON" }, "geometry": { "type": "Point", "coordinates": [ -83.029831128772514, 9.991656743726711 ] } },
{ "type": "Feature", "properties": { "cat": 157, "NOMBRE": "CLINICA BATAN", "TIPO": "C.C.S.S", "RECURSOS": "1 ENFERMERA", "PROVINCIA": "LIMON", "CANTON": "MATINA", "DISTRITO": "BATAN" }, "geometry": { "type": "Point", "coordinates": [ -83.340999983677463, 10.085811550917072 ] } },
{ "type": "Feature", "properties": { "cat": 158, "NOMBRE": "CLINICA CARIARI", "TIPO": "C.C.S.S", "RECURSOS": "ND", "PROVINCIA": "LIMON", "CANTON": "POCOCI", "DISTRITO": "CARIARI" }, "geometry": { "type": "Point", "coordinates": [ -83.73467974411092, 10.360993712513372 ] } },
{ "type": "Feature", "properties": { "cat": 159, "NOMBRE": "CLINICA PRIVADA ATLANTICA", "TIPO": "PRIVADA", "RECURSOS": "ND", "PROVINCIA": "LIMON", "CANTON": "POCOCI", "DISTRITO": "GUAPILES" }, "geometry": { "type": "Point", "coordinates": [ -83.789232624135323, 10.216805195382232 ] } },
{ "type": "Feature", "properties": { "cat": 160, "NOMBRE": "CLINICA QUIRURGICA POCOCI", "TIPO": "PRIVADA", "RECURSOS": "ND", "PROVINCIA": "LIMON", "CANTON": "POCOCI", "DISTRITO": "GUAPILES" }, "geometry": { "type": "Point", "coordinates": [ -83.789213794130191, 10.216812099199043 ] } },
{ "type": "Feature", "properties": { "cat": 161, "NOMBRE": "CLINICA SANTIAGO", "TIPO": "PRIVADA", "RECURSOS": "ND", "PROVINCIA": "LIMON", "CANTON": "POCOCI", "DISTRITO": "GUAPILES" }, "geometry": { "type": "Point", "coordinates": [ -83.789239614075854, 10.216812143319441 ] } },
{ "type": "Feature", "properties": { "cat": 162, "NOMBRE": "CLINICA LA RITA", "TIPO": "C.C.S.S", "RECURSOS": "ND", "PROVINCIA": "LIMON", "CANTON": "POCOCI", "DISTRITO": "RITA" }, "geometry": { "type": "Point", "coordinates": [ -83.784491172562142, 10.280478908210284 ] } },
{ "type": "Feature", "properties": { "cat": 163, "NOMBRE": "CLINICA TICABAN", "TIPO": "C.C.S.S", "RECURSOS": "1 CIRUJANO", "PROVINCIA": "LIMON", "CANTON": "POCOCI", "DISTRITO": "RITA" }, "geometry": { "type": "Point", "coordinates": [ -83.830940475889236, 10.401407632821618 ] } },
{ "type": "Feature", "properties": { "cat": 164, "NOMBRE": "CLINICA ROXANA", "TIPO": "C.C.S.S", "RECURSOS": "1 CIRUJANO", "PROVINCIA": "LIMON", "CANTON": "POCOCI", "DISTRITO": "ROXANA" }, "geometry": { "type": "Point", "coordinates": [ -83.752173928776074, 10.271273888275154 ] } },
{ "type": "Feature", "properties": { "cat": 165, "NOMBRE": "CLINICA LA PERLA", "TIPO": "C.C.S.S", "RECURSOS": "ND", "PROVINCIA": "LIMON", "CANTON": "SIQUIRRES", "DISTRITO": "PACUARITO" }, "geometry": { "type": "Point", "coordinates": [ -83.377285090585659, 10.179535367465784 ] } },
{ "type": "Feature", "properties": { "cat": 166, "NOMBRE": "CLINICA PACUARITO", "TIPO": "C.C.S.S", "RECURSOS": "ND", "PROVINCIA": "LIMON", "CANTON": "SIQUIRRES", "DISTRITO": "PACUARITO" }, "geometry": { "type": "Point", "coordinates": [ -83.466740843506173, 10.1050626830264 ] } },
{ "type": "Feature", "properties": { "cat": 167, "NOMBRE": "CLINICA LA PERLA", "TIPO": "C.C.S.S", "RECURSOS": "ND", "PROVINCIA": "LIMON", "CANTON": "SIQUIRRES", "DISTRITO": "SIQUIRRES" }, "geometry": { "type": "Point", "coordinates": [ -83.507286982880515, 10.096743962674958 ] } },
{ "type": "Feature", "properties": { "cat": 168, "NOMBRE": "CLINICA SIQUIRRES", "TIPO": "C.C.S.S", "RECURSOS": "2 CIRUJANOS", "PROVINCIA": "LIMON", "CANTON": "SIQUIRRES", "DISTRITO": "SIQUIRRES" }, "geometry": { "type": "Point", "coordinates": [ -83.507305175594141, 10.096759796988286 ] } },
{ "type": "Feature", "properties": { "cat": 169, "NOMBRE": "CLINICA INTEGRADA AMUBRI TALAMANCA", "TIPO": "C.C.S.S", "RECURSOS": "ND", "PROVINCIA": "LIMON", "CANTON": "TALAMANCA", "DISTRITO": "BRATSI" }, "geometry": { "type": "Point", "coordinates": [ -82.952127661608799, 9.516965774725291 ] } },
{ "type": "Feature", "properties": { "cat": 170, "NOMBRE": "CLINICA INTEGRADA DE BRIBRI", "TIPO": "C.C.S.S", "RECURSOS": "2 MEDICOS /", "PROVINCIA": "LIMON", "CANTON": "TALAMANCA", "DISTRITO": "BRATSI" }, "geometry": { "type": "Point", "coordinates": [ -82.830660211462686, 9.622231088276591 ] } },
{ "type": "Feature", "properties": { "cat": 171, "NOMBRE": "EBAIS CUBA CREEK LIMON", "TIPO": "E.B.A.I.S", "RECURSOS": "ND", "PROVINCIA": "LIMON", "CANTON": "TALAMANCA", "DISTRITO": "CAHUITA" }, "geometry": { "type": "Point", "coordinates": [ -82.840459572766548, 9.738452917952559 ] } },
{ "type": "Feature", "properties": { "cat": 172, "NOMBRE": "EBAIS CAHUITA", "TIPO": "E.B.A.I.S", "RECURSOS": "ND", "PROVINCIA": "LIMON", "CANTON": "TALAMANCA", "DISTRITO": "CAHUITA" }, "geometry": { "type": "Point", "coordinates": [ -82.840459572766548, 9.738452917952559 ] } },
{ "type": "Feature", "properties": { "cat": 173, "NOMBRE": "CLINICA DAYTONIA", "TIPO": "C.C.S.S", "RECURSOS": "ND", "PROVINCIA": "LIMON", "CANTON": "TALAMANCA", "DISTRITO": "SIXAOLA" }, "geometry": { "type": "Point", "coordinates": [ -82.658235052231831, 9.522161993674702 ] } },
{ "type": "Feature", "properties": { "cat": 174, "NOMBRE": "CLINICA SIXAOLA", "TIPO": "C.C.S.S", "RECURSOS": "3 MEDICOS /", "PROVINCIA": "LIMON", "CANTON": "TALAMANCA", "DISTRITO": "SIXAOLA" }, "geometry": { "type": "Point", "coordinates": [ -82.612686674152613, 9.501709699437937 ] } },
{ "type": "Feature", "properties": { "cat": 175, "NOMBRE": "CLINICA QUEPOS AGUIRRE", "TIPO": "C.C.S.S", "RECURSOS": "ND", "PROVINCIA": "PUNTARENAS", "CANTON": "AGUIRRE", "DISTRITO": "QUEPOS" }, "geometry": { "type": "Point", "coordinates": [ -84.158649029246149, 9.427150309911422 ] } },
{ "type": "Feature", "properties": { "cat": 176, "NOMBRE": "CLINICA DE BUENOS AIRES", "TIPO": "C.C.S.S", "RECURSOS": "ND", "PROVINCIA": "PUNTARENAS", "CANTON": "BUENOS AIRES", "DISTRITO": "BUENOS AIRES" }, "geometry": { "type": "Point", "coordinates": [ -83.335144418946314, 9.171978510380949 ] } },
{ "type": "Feature", "properties": { "cat": 177, "NOMBRE": "EBAIS PASO CANOAS", "TIPO": "E.B.A.I.S", "RECURSOS": "ND", "PROVINCIA": "PUNTARENAS", "CANTON": "CORREDORES", "DISTRITO": "CANOAS" }, "geometry": { "type": "Point", "coordinates": [ -82.842392757392986, 8.532495136861945 ] } },
{ "type": "Feature", "properties": { "cat": 178, "NOMBRE": "EBAIS CIUDAD NEILY", "TIPO": "E.B.A.I.S", "RECURSOS": "ND", "PROVINCIA": "PUNTARENAS", "CANTON": "CORREDORES", "DISTRITO": "CORREDOR" }, "geometry": { "type": "Point", "coordinates": [ -82.945738809029848, 8.646187230693043 ] } },
{ "type": "Feature", "properties": { "cat": 179, "NOMBRE": "CLINICA LA CUESTA", "TIPO": "C.C.S.S", "RECURSOS": "ND", "PROVINCIA": "PUNTARENAS", "CANTON": "CORREDORES", "DISTRITO": "LA CUESTA" }, "geometry": { "type": "Point", "coordinates": [ -82.847552984172324, 8.490381789976686 ] } },
{ "type": "Feature", "properties": { "cat": 180, "NOMBRE": "CLINICA AGUA BUENA", "TIPO": "C.C.S.S", "RECURSOS": "ND", "PROVINCIA": "PUNTARENAS", "CANTON": "COTO BRUS", "DISTRITO": "AGUABUENA" }, "geometry": { "type": "Point", "coordinates": [ -82.948153048403142, 8.744988865330221 ] } },
{ "type": "Feature", "properties": { "cat": 181, "NOMBRE": "CLINICA SABALITO", "TIPO": "C.C.S.S", "RECURSOS": "ND", "PROVINCIA": "PUNTARENAS", "CANTON": "COTO BRUS", "DISTRITO": "SABALITO" }, "geometry": { "type": "Point", "coordinates": [ -82.913373618573374, 8.820184745568978 ] } },
{ "type": "Feature", "properties": { "cat": 182, "NOMBRE": "EBAIS SAN VITO DE COTO BRUS", "TIPO": "E.B.A.I.S", "RECURSOS": "ND", "PROVINCIA": "PUNTARENAS", "CANTON": "COTO BRUS", "DISTRITO": "SAN VITO" }, "geometry": { "type": "Point", "coordinates": [ -82.971171958000966, 8.819152465507365 ] } },
{ "type": "Feature", "properties": { "cat": 183, "NOMBRE": "CENTRO INTEGRADO DE ESPARZA", "TIPO": "C.C.S.S", "RECURSOS": "ND", "PROVINCIA": "PUNTARENAS", "CANTON": "ESPARZA", "DISTRITO": "ESPIRITU SANTO" }, "geometry": { "type": "Point", "coordinates": [ -84.665650557273679, 9.989271645016386 ] } },
{ "type": "Feature", "properties": { "cat": 184, "NOMBRE": "CLINICA ESPARZA", "TIPO": "C.C.S.S", "RECURSOS": "ND", "PROVINCIA": "PUNTARENAS", "CANTON": "ESPARZA", "DISTRITO": "ESPIRITU SANTO" }, "geometry": { "type": "Point", "coordinates": [ -84.665650557273679, 9.989271645016386 ] } },
{ "type": "Feature", "properties": { "cat": 185, "NOMBRE": "CLINICA DE JACO", "TIPO": "C.C.S.S", "RECURSOS": "ND", "PROVINCIA": "PUNTARENAS", "CANTON": "GARABITO", "DISTRITO": "JACO" }, "geometry": { "type": "Point", "coordinates": [ -84.625862525519082, 9.60954998543515 ] } },
{ "type": "Feature", "properties": { "cat": 186, "NOMBRE": "EBAIS GOLFITO", "TIPO": "E.B.A.I.S", "RECURSOS": "ND", "PROVINCIA": "PUNTARENAS", "CANTON": "GOLFITO", "DISTRITO": "GOLFITO" }, "geometry": { "type": "Point", "coordinates": [ -83.165768817001009, 8.639516543656441 ] } },
{ "type": "Feature", "properties": { "cat": 187, "NOMBRE": "CLINICA COTO 58", "TIPO": "C.C.S.S", "RECURSOS": "ND", "PROVINCIA": "PUNTARENAS", "CANTON": "GOLFITO", "DISTRITO": "GUAYCARA" }, "geometry": { "type": "Point", "coordinates": [ -83.084286964435407, 8.686795820512712 ] } },
{ "type": "Feature", "properties": { "cat": 188, "NOMBRE": "CLINICA COTO 63", "TIPO": "C.C.S.S", "RECURSOS": "ND", "PROVINCIA": "PUNTARENAS", "CANTON": "GOLFITO", "DISTRITO": "GUAYCARA" }, "geometry": { "type": "Point", "coordinates": [ -83.084286964435407, 8.686795820512712 ] } },
{ "type": "Feature", "properties": { "cat": 189, "NOMBRE": "CLINICA MIRAMAR", "TIPO": "C.C.S.S", "RECURSOS": "ND", "PROVINCIA": "PUNTARENAS", "CANTON": "MONTES DE ORO", "DISTRITO": "MIRAMAR" }, "geometry": { "type": "Point", "coordinates": [ -84.728564456234025, 10.091696112850055 ] } },
{ "type": "Feature", "properties": { "cat": 190, "NOMBRE": "CLINICA MEDICA NAZARET", "TIPO": "PRIVADA", "RECURSOS": "ND", "PROVINCIA": "PUNTARENAS", "CANTON": "MONTES DE ORO", "DISTRITO": "SAN ISIDRO" }, "geometry": { "type": "Point", "coordinates": [ -84.728596754962609, 10.05642799411835 ] } },
{ "type": "Feature", "properties": { "cat": 191, "NOMBRE": "CLINICA PALMAR SUR", "TIPO": "C.C.S.S", "RECURSOS": "ND", "PROVINCIA": "PUNTARENAS", "CANTON": "OSA", "DISTRITO": "PALMAR" }, "geometry": { "type": "Point", "coordinates": [ -83.46331747913375, 8.95634670539509 ] } },
{ "type": "Feature", "properties": { "cat": 192, "NOMBRE": "CLINICA PARRITA", "TIPO": "C.C.S.S", "RECURSOS": "ND", "PROVINCIA": "PUNTARENAS", "CANTON": "PARRITA", "DISTRITO": "PARRITA" }, "geometry": { "type": "Point", "coordinates": [ -84.321061621354104, 9.520868833623311 ] } },
{ "type": "Feature", "properties": { "cat": 193, "NOMBRE": "CLINICA  DE BARRANCA", "TIPO": "C.C.S.S", "RECURSOS": "ND", "PROVINCIA": "PUNTARENAS", "CANTON": "PUNTARENAS", "DISTRITO": "BARRANCA" }, "geometry": { "type": "Point", "coordinates": [ -84.709185835690263, 9.990923788966922 ] } },
{ "type": "Feature", "properties": { "cat": 194, "NOMBRE": "CLINICA CHACARITA", "TIPO": "C.C.S.S", "RECURSOS": "ND", "PROVINCIA": "PUNTARENAS", "CANTON": "PUNTARENAS", "DISTRITO": "CHACARITA" }, "geometry": { "type": "Point", "coordinates": [ -84.773431020311293, 9.980746035328991 ] } },
{ "type": "Feature", "properties": { "cat": 195, "NOMBRE": "CLINICA CHOMES", "TIPO": "C.C.S.S", "RECURSOS": "ND", "PROVINCIA": "PUNTARENAS", "CANTON": "PUNTARENAS", "DISTRITO": "CHOMES" }, "geometry": { "type": "Point", "coordinates": [ -84.906450140619441, 10.043073318199319 ] } },
{ "type": "Feature", "properties": { "cat": 196, "NOMBRE": "CLINICA COBANO", "TIPO": "C.C.S.S", "RECURSOS": "ND", "PROVINCIA": "PUNTARENAS", "CANTON": "PUNTARENAS", "DISTRITO": "COBANO" }, "geometry": { "type": "Point", "coordinates": [ -85.103424326634595, 9.687240006901565 ] } },
{ "type": "Feature", "properties": { "cat": 197, "NOMBRE": "CLINICA INTEGRADO PAQUERA", "TIPO": "C.C.S.S", "RECURSOS": "ND", "PROVINCIA": "PUNTARENAS", "CANTON": "PUNTARENAS", "DISTRITO": "PAQUERA" }, "geometry": { "type": "Point", "coordinates": [ -84.934115324078519, 9.817105130423633 ] } },
{ "type": "Feature", "properties": { "cat": 198, "NOMBRE": "CLINICA MONTE VERDE", "TIPO": "C.C.S.S", "RECURSOS": "ND", "PROVINCIA": "PUNTARENAS", "CANTON": "PUNTARENAS", "DISTRITO": "MONTE VERDE" }, "geometry": { "type": "Point", "coordinates": [ -84.807963591381338, 10.302700062686913 ] } },
{ "type": "Feature", "properties": { "cat": 199, "NOMBRE": "CLINICA SANTA ELENA DE PUNTARENAS", "TIPO": "C.C.S.S", "RECURSOS": "ND", "PROVINCIA": "PUNTARENAS", "CANTON": "PUNTARENAS", "DISTRITO": "MONTE VERDE" }, "geometry": { "type": "Point", "coordinates": [ -84.824860584157719, 10.32175397278456 ] } },
{ "type": "Feature", "properties": { "cat": 200, "NOMBRE": "CLINICA PAQUERA", "TIPO": "C.C.S.S", "RECURSOS": "ND", "PROVINCIA": "PUNTARENAS", "CANTON": "PUNTARENAS", "DISTRITO": "PAQUERA" }, "geometry": { "type": "Point", "coordinates": [ -84.934103371430879, 9.817069899183547 ] } },
{ "type": "Feature", "properties": { "cat": 201, "NOMBRE": "EBAIS PUNTARENAS", "TIPO": "E.B.A.I.S", "RECURSOS": "ND", "PROVINCIA": "PUNTARENAS", "CANTON": "PUNTARENAS", "DISTRITO": "PUNTARENAS" }, "geometry": { "type": "Point", "coordinates": [ -84.83485634598334, 9.977694522978609 ] } },
{ "type": "Feature", "properties": { "cat": 202, "NOMBRE": "CLINICA DE ESPECIALIDADES MEDICAS", "TIPO": "PRIVADA", "RECURSOS": "ND", "PROVINCIA": "PUNTARENAS", "CANTON": "PUNTARENAS", "DISTRITO": "PUNTARENAS" }, "geometry": { "type": "Point", "coordinates": [ -84.83485634598334, 9.977694522978609 ] } },
{ "type": "Feature", "properties": { "cat": 203, "NOMBRE": "CLINICA DE ESPECIALIDADES MEDICAS SANTA MARTA", "TIPO": "PRIVADA", "RECURSOS": "ND", "PROVINCIA": "PUNTARENAS", "CANTON": "PUNTARENAS", "DISTRITO": "PUNTARENAS" }, "geometry": { "type": "Point", "coordinates": [ -84.83485634598334, 9.977694522978609 ] } },
{ "type": "Feature", "properties": { "cat": 204, "NOMBRE": "CLINICA SANTA FE DE PUNTARENAS", "TIPO": "PRIVADA", "RECURSOS": "ND", "PROVINCIA": "PUNTARENAS", "CANTON": "PUNTARENAS", "DISTRITO": "PUNTARENAS" }, "geometry": { "type": "Point", "coordinates": [ -84.83485634598334, 9.977694522978609 ] } },
{ "type": "Feature", "properties": { "cat": 205, "NOMBRE": "CLINICA SAN RAFAEL", "TIPO": "C.C.S.S", "RECURSOS": "ND", "PROVINCIA": "PUNTARENAS", "CANTON": "PUNTARENAS", "DISTRITO": "PUNTARENAS" }, "geometry": { "type": "Point", "coordinates": [ -84.83485634598334, 9.977694522978609 ] } },
{ "type": "Feature", "properties": { "cat": 206, "NOMBRE": "CLINICA SAN IGNACIO DE ACOSTA", "TIPO": "C.C.S.S", "RECURSOS": "ND", "PROVINCIA": "SAN JOSE", "CANTON": "ACOSTA", "DISTRITO": "SAN IGNACIO" }, "geometry": { "type": "Point", "coordinates": [ -84.161954333196377, 9.798693967857682 ] } },
{ "type": "Feature", "properties": { "cat": 207, "NOMBRE": "CLINICA MONTERREY", "TIPO": "C.C.S.S", "RECURSOS": "ND", "PROVINCIA": "SAN JOSE", "CANTON": "ASERRI", "DISTRITO": "MONTERREY" }, "geometry": { "type": "Point", "coordinates": [ -84.107988019658066, 9.758454630748613 ] } },
{ "type": "Feature", "properties": { "cat": 208, "NOMBRE": "CLINICA SAN GABRIEL ASERRI", "TIPO": "C.C.S.S", "RECURSOS": "ND", "PROVINCIA": "SAN JOSE", "CANTON": "ASERRI", "DISTRITO": "SAN GABRIEL" }, "geometry": { "type": "Point", "coordinates": [ -84.106843514800815, 9.787859015235609 ] } },
{ "type": "Feature", "properties": { "cat": 209, "NOMBRE": "EBAIS DESAMPARADOS", "TIPO": "E.B.A.I.S", "RECURSOS": "ND", "PROVINCIA": "SAN JOSE", "CANTON": "DESAMPARADOS", "DISTRITO": "DESAMPARADOS" }, "geometry": { "type": "Point", "coordinates": [ -84.064799816017583, 9.897705194639284 ] } },
{ "type": "Feature", "properties": { "cat": 210, "NOMBRE": "CLINICA SANTA CATALINA", "TIPO": "PRIVADA", "RECURSOS": "ND", "PROVINCIA": "SAN JOSE", "CANTON": "DESAMPARADOS", "DISTRITO": "DESAMPARADOS" }, "geometry": { "type": "Point", "coordinates": [ -84.064802592546783, 9.897713498958598 ] } },
{ "type": "Feature", "properties": { "cat": 211, "NOMBRE": "CLINICA DENTAL DESAMPARADOS", "TIPO": "C.C.S.S", "RECURSOS": "ND", "PROVINCIA": "SAN JOSE", "CANTON": "DESAMPARADOS", "DISTRITO": "DESAMPARADOS" }, "geometry": { "type": "Point", "coordinates": [ -84.064802592546783, 9.897713498958598 ] } },
{ "type": "Feature", "properties": { "cat": 212, "NOMBRE": "CLINICA DESAMPARADOS DR. MARCIAL FALLAS DIAZ", "TIPO": "C.C.S.S", "RECURSOS": "ND", "PROVINCIA": "SAN JOSE", "CANTON": "DESAMPARADOS", "DISTRITO": "DESAMPARADOS" }, "geometry": { "type": "Point", "coordinates": [ -84.064802592546783, 9.897713498958598 ] } },
{ "type": "Feature", "properties": { "cat": 213, "NOMBRE": "CLINICA FRAILES", "TIPO": "C.C.S.S", "RECURSOS": "ND", "PROVINCIA": "SAN JOSE", "CANTON": "DESAMPARADOS", "DISTRITO": "FRAILES" }, "geometry": { "type": "Point", "coordinates": [ -84.056582133606241, 9.75094328767393 ] } },
{ "type": "Feature", "properties": { "cat": 214, "NOMBRE": "CLINICA LA LUCHA", "TIPO": "C.C.S.S", "RECURSOS": "ND", "PROVINCIA": "SAN JOSE", "CANTON": "DESAMPARADOS", "DISTRITO": "SAN CRISTOBAL" }, "geometry": { "type": "Point", "coordinates": [ -83.998547942838485, 9.739034560885115 ] } },
{ "type": "Feature", "properties": { "cat": 215, "NOMBRE": "CLINICA SANTA MARIA DE DOTA", "TIPO": "C.C.S.S", "RECURSOS": "ND", "PROVINCIA": "SAN JOSE", "CANTON": "DOTA", "DISTRITO": "SANTA MARIA" }, "geometry": { "type": "Point", "coordinates": [ -83.968699179735069, 9.652480665558715 ] } },
{ "type": "Feature", "properties": { "cat": 216, "NOMBRE": "CLINICA ALBORADA INTERCONTINENTAL AISE", "TIPO": "PRIVADA", "RECURSOS": "ND", "PROVINCIA": "SAN JOSE", "CANTON": "ESCAZU", "DISTRITO": "ESCAZU" }, "geometry": { "type": "Point", "coordinates": [ -84.139408794377545, 9.919852026434299 ] } },
{ "type": "Feature", "properties": { "cat": 217, "NOMBRE": "CLINICA MEDICA KOP", "TIPO": "PRIVADA", "RECURSOS": "ND", "PROVINCIA": "SAN JOSE", "CANTON": "ESCAZU", "DISTRITO": "SAN RAFAEL" }, "geometry": { "type": "Point", "coordinates": [ -84.135760947021936, 9.927809931207491 ] } },
{ "type": "Feature", "properties": { "cat": 218, "NOMBRE": "CLINICA SAN ANGEL", "TIPO": "PRIVADA", "RECURSOS": "ND", "PROVINCIA": "SAN JOSE", "CANTON": "GOICOECHEA", "DISTRITO": "GUADALUPE" }, "geometry": { "type": "Point", "coordinates": [ -84.052517403103408, 9.946914189131306 ] } },
{ "type": "Feature", "properties": { "cat": 219, "NOMBRE": "CLINICA Y HOSPITAL JERUSALEM", "TIPO": "PRIVADA", "RECURSOS": "ND", "PROVINCIA": "SAN JOSE", "CANTON": "GOICOECHEA", "DISTRITO": "GUADALUPE" }, "geometry": { "type": "Point", "coordinates": [ -84.052517403103408, 9.946914189131306 ] } },
{ "type": "Feature", "properties": { "cat": 220, "NOMBRE": "CLINICA CATOLICA LA PURISIMA", "TIPO": "PRIVADA", "RECURSOS": "ND", "PROVINCIA": "SAN JOSE", "CANTON": "GOICOECHEA", "DISTRITO": "GUADALUPE" }, "geometry": { "type": "Point", "coordinates": [ -84.052517403103408, 9.946914189131306 ] } },
{ "type": "Feature", "properties": { "cat": 221, "NOMBRE": "CLINICA GUADALUPE DR. RICARDO JIMENEZ NUÑEZ", "TIPO": "C.C.S.S", "RECURSOS": "ND", "PROVINCIA": "SAN JOSE", "CANTON": "GOICOECHEA", "DISTRITO": "GUADALUPE" }, "geometry": { "type": "Point", "coordinates": [ -84.052517403103408, 9.946914189131306 ] } },
{ "type": "Feature", "properties": { "cat": 222, "NOMBRE": "CLINICA EL LLANO", "TIPO": "C.C.S.S", "RECURSOS": "ND", "PROVINCIA": "SAN JOSE", "CANTON": "LEON CORTES", "DISTRITO": "LLANO BONITO" }, "geometry": { "type": "Point", "coordinates": [ -84.113763945313053, 9.659810395064763 ] } },
{ "type": "Feature", "properties": { "cat": 223, "NOMBRE": "CLINICA SAN PABLO", "TIPO": "C.C.S.S", "RECURSOS": "ND", "PROVINCIA": "SAN JOSE", "CANTON": "LEON CORTES", "DISTRITO": "SAN PABLO" }, "geometry": { "type": "Point", "coordinates": [ -84.040228283342756, 9.68403409887701 ] } },
{ "type": "Feature", "properties": { "cat": 224, "NOMBRE": "CLINICA LEON CORTES CORTES", "TIPO": "C.C.S.S", "RECURSOS": "ND", "PROVINCIA": "SAN JOSE", "CANTON": "LEON CORTES", "DISTRITO": "SAN PABLO" }, "geometry": { "type": "Point", "coordinates": [ -84.040224127598208, 9.684048477071901 ] } },
{ "type": "Feature", "properties": { "cat": 225, "NOMBRE": "CLINICA MARTEN", "TIPO": "PRIVADA", "RECURSOS": "ND", "PROVINCIA": "SAN JOSE", "CANTON": "MONTES DE OCA", "DISTRITO": "MERCEDES" }, "geometry": { "type": "Point", "coordinates": [ -84.04430990968207, 9.94365054677929 ] } },
{ "type": "Feature", "properties": { "cat": 226, "NOMBRE": "CLINICA DEL ESTE S.A.", "TIPO": "PRIVADA", "RECURSOS": "ND", "PROVINCIA": "SAN JOSE", "CANTON": "MONTES DE OCA", "DISTRITO": "SAN PEDRO" }, "geometry": { "type": "Point", "coordinates": [ -84.052272743250981, 9.932886332621196 ] } },
{ "type": "Feature", "properties": { "cat": 227, "NOMBRE": "CLINICA DINAMARCA SAN PEDRO", "TIPO": "PRIVADA", "RECURSOS": "ND", "PROVINCIA": "SAN JOSE", "CANTON": "MONTES DE OCA", "DISTRITO": "SAN PEDRO" }, "geometry": { "type": "Point", "coordinates": [ -84.052272743250981, 9.932886332621196 ] } },
{ "type": "Feature", "properties": { "cat": 228, "NOMBRE": "CLINICA MEDICA INTEGRAL SAN JUDAS S.A.", "TIPO": "PRIVADA", "RECURSOS": "ND", "PROVINCIA": "SAN JOSE", "CANTON": "MONTES DE OCA", "DISTRITO": "SAN PEDRO" }, "geometry": { "type": "Point", "coordinates": [ -84.052272743250981, 9.932886332621196 ] } },
{ "type": "Feature", "properties": { "cat": 229, "NOMBRE": "CLINICA SAN PEDRO DE MONTES OCA", "TIPO": "C.C.S.S", "RECURSOS": "ND", "PROVINCIA": "SAN JOSE", "CANTON": "MONTES DE OCA", "DISTRITO": "SAN PEDRO" }, "geometry": { "type": "Point", "coordinates": [ -84.052272743250981, 9.932886332621196 ] } },
{ "type": "Feature", "properties": { "cat": 230, "NOMBRE": "EBAIS CIUDAD COLON", "TIPO": "E.B.A.I.S", "RECURSOS": "ND", "PROVINCIA": "SAN JOSE", "CANTON": "MORA", "DISTRITO": "COLON" }, "geometry": { "type": "Point", "coordinates": [ -84.241119159150045, 9.914150803948734 ] } },
{ "type": "Feature", "properties": { "cat": 231, "NOMBRE": "CLINICA CIUDAD COLON", "TIPO": "C.C.S.S", "RECURSOS": "ND", "PROVINCIA": "SAN JOSE", "CANTON": "MORA", "DISTRITO": "COLON" }, "geometry": { "type": "Point", "coordinates": [ -84.241119159150045, 9.914150803948734 ] } },
{ "type": "Feature", "properties": { "cat": 232, "NOMBRE": "CLINICA TABARCIA", "TIPO": "C.C.S.S", "RECURSOS": "ND", "PROVINCIA": "SAN JOSE", "CANTON": "MORA", "DISTRITO": "TABARCIA" }, "geometry": { "type": "Point", "coordinates": [ -84.234015417051808, 9.847169807984496 ] } },
{ "type": "Feature", "properties": { "cat": 233, "NOMBRE": "CLINICA DANIEL FLORES", "TIPO": "C.C.S.S", "RECURSOS": "ND", "PROVINCIA": "SAN JOSE", "CANTON": "PEREZ ZELEDON", "DISTRITO": "DANIEL FLORES" }, "geometry": { "type": "Point", "coordinates": [ -83.667406488483763, 9.335735170961595 ] } },
{ "type": "Feature", "properties": { "cat": 234, "NOMBRE": "CLINICA GENERAL VIEJO", "TIPO": "C.C.S.S", "RECURSOS": "ND", "PROVINCIA": "SAN JOSE", "CANTON": "PEREZ ZELEDON", "DISTRITO": "GENERAL" }, "geometry": { "type": "Point", "coordinates": [ -83.660759567113985, 9.372107053145275 ] } },
{ "type": "Feature", "properties": { "cat": 235, "NOMBRE": "CLINICA PEJIBAYE SAN ISIDRO", "TIPO": "C.C.S.S", "RECURSOS": "ND", "PROVINCIA": "SAN JOSE", "CANTON": "PEREZ ZELEDON", "DISTRITO": "PEJIBAYE" }, "geometry": { "type": "Point", "coordinates": [ -83.570199366370574, 9.159672370631082 ] } },
{ "type": "Feature", "properties": { "cat": 236, "NOMBRE": "EBAIS PLATANARES", "TIPO": "E.B.A.I.S", "RECURSOS": "ND", "PROVINCIA": "SAN JOSE", "CANTON": "PEREZ ZELEDON", "DISTRITO": "PLATANARES" }, "geometry": { "type": "Point", "coordinates": [ -83.642045117697634, 9.204770335292357 ] } },
{ "type": "Feature", "properties": { "cat": 237, "NOMBRE": "CLINICA SERVICIOS INTEGRADOS DE SALUD RIVAS", "TIPO": "PRIVADA", "RECURSOS": "ND", "PROVINCIA": "SAN JOSE", "CANTON": "PEREZ ZELEDON", "DISTRITO": "RIVAS" }, "geometry": { "type": "Point", "coordinates": [ -83.657729417298697, 9.421289138067303 ] } },
{ "type": "Feature", "properties": { "cat": 238, "NOMBRE": "EBAIS SAN ISIDRO DEL GENERAL", "TIPO": "E.B.A.I.S", "RECURSOS": "ND", "PROVINCIA": "SAN JOSE", "CANTON": "PEREZ ZELEDON", "DISTRITO": "SAN ISIDRO DEL GENERAL" }, "geometry": { "type": "Point", "coordinates": [ -83.702011746672525, 9.373152013153705 ] } },
{ "type": "Feature", "properties": { "cat": 239, "NOMBRE": "CLINICA DINAMARCA SAN ISIDRO DEL GENERAL", "TIPO": "PRIVADA", "RECURSOS": "ND", "PROVINCIA": "SAN JOSE", "CANTON": "PEREZ ZELEDON", "DISTRITO": "SAN ISIDRO DEL GENERAL" }, "geometry": { "type": "Point", "coordinates": [ -83.702011746672525, 9.373152013153705 ] } },
{ "type": "Feature", "properties": { "cat": 240, "NOMBRE": "CLINICA EL LABRADOR", "TIPO": "PRIVADA", "RECURSOS": "ND", "PROVINCIA": "SAN JOSE", "CANTON": "PEREZ ZELEDON", "DISTRITO": "SAN ISIDRO DEL GENERAL" }, "geometry": { "type": "Point", "coordinates": [ -83.702011746672525, 9.373152013153705 ] } },
{ "type": "Feature", "properties": { "cat": 241, "NOMBRE": "CLINICA SAN ISIDRO", "TIPO": "C.C.S.S", "RECURSOS": "ND", "PROVINCIA": "SAN JOSE", "CANTON": "PEREZ ZELEDON", "DISTRITO": "SAN ISIDRO DEL GENERAL" }, "geometry": { "type": "Point", "coordinates": [ -83.702011746672525, 9.373152013153705 ] } },
{ "type": "Feature", "properties": { "cat": 242, "NOMBRE": "CLINICA LA GLORIA, PURISCAL", "TIPO": "C.C.S.S", "RECURSOS": "ND", "PROVINCIA": "SAN JOSE", "CANTON": "PURISCAL", "DISTRITO": "CHIRES" }, "geometry": { "type": "Point", "coordinates": [ -84.450339675690259, 9.655339242463972 ] } },
{ "type": "Feature", "properties": { "cat": 243, "NOMBRE": "EBAIS BO CARIT", "TIPO": "E.B.A.I.S", "RECURSOS": "ND", "PROVINCIA": "SAN JOSE", "CANTON": "SAN JOSE", "DISTRITO": "CARMEN" }, "geometry": { "type": "Point", "coordinates": [ -84.069832113279105, 9.936374918575089 ] } },
{ "type": "Feature", "properties": { "cat": 244, "NOMBRE": "CLINICA INTEGRAL DE MEDICINA", "TIPO": "PRIVADA", "RECURSOS": "ND", "PROVINCIA": "SAN JOSE", "CANTON": "SAN JOSE", "DISTRITO": "CARMEN" }, "geometry": { "type": "Point", "coordinates": [ -84.069832113279105, 9.936374918575089 ] } },
{ "type": "Feature", "properties": { "cat": 245, "NOMBRE": "CLINICA MEDRANO", "TIPO": "PRIVADA", "RECURSOS": "ND", "PROVINCIA": "SAN JOSE", "CANTON": "SAN JOSE", "DISTRITO": "CARMEN" }, "geometry": { "type": "Point", "coordinates": [ -84.069832113279105, 9.936374918575089 ] } },
{ "type": "Feature", "properties": { "cat": 246, "NOMBRE": "CLINICA AGUILAR BONILLA", "TIPO": "C.C.S.S", "RECURSOS": "ND", "PROVINCIA": "SAN JOSE", "CANTON": "SAN JOSE", "DISTRITO": "CARMEN" }, "geometry": { "type": "Point", "coordinates": [ -84.069832113279105, 9.936374918575089 ] } },
{ "type": "Feature", "properties": { "cat": 247, "NOMBRE": "CLINICA CENTRAL", "TIPO": "C.C.S.S", "RECURSOS": "ND", "PROVINCIA": "SAN JOSE", "CANTON": "SAN JOSE", "DISTRITO": "CARMEN" }, "geometry": { "type": "Point", "coordinates": [ -84.069832113279105, 9.936374918575089 ] } },
{ "type": "Feature", "properties": { "cat": 248, "NOMBRE": "CLINICA AMERICANA LTDA.", "TIPO": "PRIVADA", "RECURSOS": "ND", "PROVINCIA": "SAN JOSE", "CANTON": "SAN JOSE", "DISTRITO": "CATEDRAL" }, "geometry": { "type": "Point", "coordinates": [ -84.071566146251698, 9.924450475575874 ] } },
{ "type": "Feature", "properties": { "cat": 249, "NOMBRE": "CLINICA ARANJUEZ S.A.", "TIPO": "PRIVADA", "RECURSOS": "ND", "PROVINCIA": "SAN JOSE", "CANTON": "SAN JOSE", "DISTRITO": "CATEDRAL" }, "geometry": { "type": "Point", "coordinates": [ -84.071566146251698, 9.924450475575874 ] } },
{ "type": "Feature", "properties": { "cat": 250, "NOMBRE": "CLINICA SANTA MARIA S.A.", "TIPO": "PRIVADA", "RECURSOS": "ND", "PROVINCIA": "SAN JOSE", "CANTON": "SAN JOSE", "DISTRITO": "CATEDRAL" }, "geometry": { "type": "Point", "coordinates": [ -84.071566146251698, 9.924450475575874 ] } },
{ "type": "Feature", "properties": { "cat": 251, "NOMBRE": "CLINICA SANTA RITA", "TIPO": "PRIVADA", "RECURSOS": "ND", "PROVINCIA": "SAN JOSE", "CANTON": "SAN JOSE", "DISTRITO": "CATEDRAL" }, "geometry": { "type": "Point", "coordinates": [ -84.071566146251698, 9.924450475575874 ] } },
{ "type": "Feature", "properties": { "cat": 252, "NOMBRE": "CLINICA BIBLICA", "TIPO": "PRIVADA", "RECURSOS": "ND", "PROVINCIA": "SAN JOSE", "CANTON": "SAN JOSE", "DISTRITO": "CATEDRAL" }, "geometry": { "type": "Point", "coordinates": [ -84.071566146251698, 9.924450475575874 ] } },
{ "type": "Feature", "properties": { "cat": 253, "NOMBRE": "CLINICA SANTA RITA", "TIPO": "C.C.S.S", "RECURSOS": "ND", "PROVINCIA": "SAN JOSE", "CANTON": "SAN JOSE", "DISTRITO": "CATEDRAL" }, "geometry": { "type": "Point", "coordinates": [ -84.071566146251698, 9.924450475575874 ] } },
{ "type": "Feature", "properties": { "cat": 254, "NOMBRE": "CLINICA DE ESPECIALIDADES MEDICAS SANTA MONICA", "TIPO": "PRIVADA", "RECURSOS": "ND", "PROVINCIA": "SAN JOSE", "CANTON": "SAN JOSE", "DISTRITO": "HATILLO" }, "geometry": { "type": "Point", "coordinates": [ -84.100096894796891, 9.916326910895791 ] } },
{ "type": "Feature", "properties": { "cat": 255, "NOMBRE": "CLINICA HATILLO DR. SOLON NUÑEZ FRUTOS", "TIPO": "C.C.S.S", "RECURSOS": "ND", "PROVINCIA": "SAN JOSE", "CANTON": "SAN JOSE", "DISTRITO": "HATILLO" }, "geometry": { "type": "Point", "coordinates": [ -84.100096894796891, 9.916326910895791 ] } },
{ "type": "Feature", "properties": { "cat": 256, "NOMBRE": "CLINICA ODONTOLOGICA HATILLO", "TIPO": "C.C.S.S", "RECURSOS": "ND", "PROVINCIA": "SAN JOSE", "CANTON": "SAN JOSE", "DISTRITO": "HATILLO" }, "geometry": { "type": "Point", "coordinates": [ -84.100096894796891, 9.916326910895791 ] } },
{ "type": "Feature", "properties": { "cat": 257, "NOMBRE": "CLINICA DENTAL MINISTERIO SALUD", "TIPO": "C.C.S.S", "RECURSOS": "ND", "PROVINCIA": "SAN JOSE", "CANTON": "SAN JOSE", "DISTRITO": "HOSPITAL" }, "geometry": { "type": "Point", "coordinates": [ -84.089067498710506, 9.926432058147222 ] } },
{ "type": "Feature", "properties": { "cat": 258, "NOMBRE": "CLINICA DR. RICARDO MORENO CAÑAS", "TIPO": "C.C.S.S", "RECURSOS": "ND", "PROVINCIA": "SAN JOSE", "CANTON": "SAN JOSE", "DISTRITO": "HOSPITAL" }, "geometry": { "type": "Point", "coordinates": [ -84.089067498710506, 9.926432058147222 ] } },
{ "type": "Feature", "properties": { "cat": 259, "NOMBRE": "EBAIS BO. VASCONIA", "TIPO": "E.B.A.I.S", "RECURSOS": "ND", "PROVINCIA": "SAN JOSE", "CANTON": "SAN JOSE", "DISTRITO": "MATA REDONDA" }, "geometry": { "type": "Point", "coordinates": [ -84.110271708275846, 9.935402786201703 ] } },
{ "type": "Feature", "properties": { "cat": 260, "NOMBRE": "CLINICA SANTA LUCIA S.A.", "TIPO": "PRIVADA", "RECURSOS": "ND", "PROVINCIA": "SAN JOSE", "CANTON": "SAN JOSE", "DISTRITO": "MATA REDONDA" }, "geometry": { "type": "Point", "coordinates": [ -84.110271708275846, 9.935402786201703 ] } },
{ "type": "Feature", "properties": { "cat": 261, "NOMBRE": "CLINICA PAVAS", "TIPO": "C.C.S.S", "RECURSOS": "ND", "PROVINCIA": "SAN JOSE", "CANTON": "SAN JOSE", "DISTRITO": "PAVAS" }, "geometry": { "type": "Point", "coordinates": [ -84.134646119605549, 9.945808622722263 ] } },
{ "type": "Feature", "properties": { "cat": 262, "NOMBRE": "CLINICA COOPERATIVA DE PAVAS", "TIPO": "C.C.S.S", "RECURSOS": "ND", "PROVINCIA": "SAN JOSE", "CANTON": "SAN JOSE", "DISTRITO": "PAVAS" }, "geometry": { "type": "Point", "coordinates": [ -84.134646119605549, 9.945808622722263 ] } },
{ "type": "Feature", "properties": { "cat": 263, "NOMBRE": "EBAIS LA URUCA", "TIPO": "E.B.A.I.S", "RECURSOS": "ND", "PROVINCIA": "SAN JOSE", "CANTON": "SAN JOSE", "DISTRITO": "URUCA" }, "geometry": { "type": "Point", "coordinates": [ -84.100050515969841, 9.94914255145391 ] } },
{ "type": "Feature", "properties": { "cat": 264, "NOMBRE": "CLINICA JUAN PABLO II", "TIPO": "PRIVADA", "RECURSOS": "ND", "PROVINCIA": "SAN JOSE", "CANTON": "SAN JOSE", "DISTRITO": "URUCA" }, "geometry": { "type": "Point", "coordinates": [ -84.100050515969841, 9.94914255145391 ] } },
{ "type": "Feature", "properties": { "cat": 265, "NOMBRE": "CLINICA SANTA FE", "TIPO": "PRIVADA", "RECURSOS": "ND", "PROVINCIA": "SAN JOSE", "CANTON": "SAN JOSE", "DISTRITO": "URUCA" }, "geometry": { "type": "Point", "coordinates": [ -84.100050515969841, 9.94914255145391 ] } },
{ "type": "Feature", "properties": { "cat": 266, "NOMBRE": "CLINICA DR. CARLOS DURAN CARTIN", "TIPO": "C.C.S.S", "RECURSOS": "ND", "PROVINCIA": "SAN JOSE", "CANTON": "SAN JOSE", "DISTRITO": "ZAPOTE" }, "geometry": { "type": "Point", "coordinates": [ -84.053589059804935, 9.920322227625403 ] } },
{ "type": "Feature", "properties": { "cat": 267, "NOMBRE": "CLINICA GIL S.A.", "TIPO": "PRIVADA", "RECURSOS": "ND", "PROVINCIA": "SAN JOSE", "CANTON": "SAN JOSE", "DISTRITO": "CATEDRAL" }, "geometry": { "type": "Point", "coordinates": [ -84.071566146251698, 9.924450475575874 ] } },
{ "type": "Feature", "properties": { "cat": 268, "NOMBRE": "CLINICA DE ESPECIALIDADES SAN JUDAS TADEO", "TIPO": "PRIVADA", "RECURSOS": "ND", "PROVINCIA": "SAN JOSE", "CANTON": "TARRAZU", "DISTRITO": "SAN MARCOS" }, "geometry": { "type": "Point", "coordinates": [ -84.021048735430128, 9.659047294568238 ] } },
{ "type": "Feature", "properties": { "cat": 269, "NOMBRE": "CLINICA SAN MARCOS TARRAZU", "TIPO": "C.C.S.S", "RECURSOS": "ND", "PROVINCIA": "SAN JOSE", "CANTON": "TARRAZU", "DISTRITO": "SAN MARCOS" }, "geometry": { "type": "Point", "coordinates": [ -84.021048735430128, 9.659047294568238 ] } },
{ "type": "Feature", "properties": { "cat": 270, "NOMBRE": "CLINICA HOSPITAL SAN JOSE", "TIPO": "PRIVADA", "RECURSOS": "ND", "PROVINCIA": "SAN JOSE", "CANTON": "TIBAS", "DISTRITO": "CINCO ESQUINAS" }, "geometry": { "type": "Point", "coordinates": [ -84.087008005624767, 9.953596572846021 ] } },
{ "type": "Feature", "properties": { "cat": 271, "NOMBRE": "CLINICA DR. CLORITO PICADO", "TIPO": "C.C.S.S", "RECURSOS": "ND", "PROVINCIA": "SAN JOSE", "CANTON": "TIBAS", "DISTRITO": "CINCO ESQUINAS" }, "geometry": { "type": "Point", "coordinates": [ -84.087008005624767, 9.953596572846021 ] } },
{ "type": "Feature", "properties": { "cat": 272, "NOMBRE": "CLINICA DE TIBAS (COOPESANI)", "TIPO": "C.C.S.S", "RECURSOS": "ND", "PROVINCIA": "SAN JOSE", "CANTON": "TIBAS", "DISTRITO": "SAN JUAN" }, "geometry": { "type": "Point", "coordinates": [ -84.078017863980719, 9.96207272598479 ] } },
{ "type": "Feature", "properties": { "cat": 273, "NOMBRE": "CLINICA DE TURRUBARES", "TIPO": "C.C.S.S", "RECURSOS": "ND", "PROVINCIA": "SAN JOSE", "CANTON": "TURRUBARES", "DISTRITO": "SAN PABLO" }, "geometry": { "type": "Point", "coordinates": [ -84.440755973747017, 9.909121278268334 ] } },
{ "type": "Feature", "properties": { "cat": 274, "NOMBRE": "CLINICA SAN PABLO DE TURRUBARES", "TIPO": "C.C.S.S", "RECURSOS": "ND", "PROVINCIA": "SAN JOSE", "CANTON": "TURRUBARES", "DISTRITO": "SAN PABLO" }, "geometry": { "type": "Point", "coordinates": [ -84.440755973747017, 9.909121278268334 ] } },
{ "type": "Feature", "properties": { "cat": 275, "NOMBRE": "CLINICA MEDICO QUIRURGICA SAN LAZARUS", "TIPO": "PRIVADA", "RECURSOS": "ND", "PROVINCIA": "SAN JOSE", "CANTON": "VAZQUEZ DE CORONADO", "DISTRITO": "SAN ISIDRO" }, "geometry": { "type": "Point", "coordinates": [ -84.007127175376297, 9.976470262976324 ] } },
{ "type": "Feature", "properties": { "cat": 276, "NOMBRE": "CLINICA CORONADO", "TIPO": "C.C.S.S", "RECURSOS": "ND", "PROVINCIA": "SAN JOSE", "CANTON": "VAZQUEZ DE CORONADO", "DISTRITO": "SAN ISIDRO" }, "geometry": { "type": "Point", "coordinates": [ -84.007127175376297, 9.976470262976324 ] } },
{ "type": "Feature", "properties": { "cat": 277, "NOMBRE": "CLINICA ASEMBIS", "TIPO": "PRIVADA", "RECURSOS": "ND", "PROVINCIA": "SAN JOSE", "CANTON": "SAN JOSE", "DISTRITO": "HOSPITAL" }, "geometry": { "type": "Point", "coordinates": [ -84.089067498710506, 9.926432058147222 ] } },
{ "type": "Feature", "properties": { "cat": 278, "NOMBRE": "CLINICA DE ESPECIALIDADES MEDICAS SANTA MARIA", "TIPO": "PRIVADA", "RECURSOS": "ND", "PROVINCIA": "SAN JOSE", "CANTON": "SAN JOSE", "DISTRITO": "CATEDRAL" }, "geometry": { "type": "Point", "coordinates": [ -84.071566146251698, 9.924450475575874 ] } },
{ "type": "Feature", "properties": { "cat": 279, "NOMBRE": "CLINICA DINAMARCA BARRIO ARANJUEZ", "TIPO": "PRIVADA", "RECURSOS": "ND", "PROVINCIA": "SAN JOSE", "CANTON": "SAN JOSE", "DISTRITO": "CARMEN" }, "geometry": { "type": "Point", "coordinates": [ -84.069832113279105, 9.936374918575089 ] } },
{ "type": "Feature", "properties": { "cat": 280, "NOMBRE": "CLINICA GENEZARETH S.A.", "TIPO": "PRIVADA", "RECURSOS": "ND", "PROVINCIA": "SAN JOSE", "CANTON": "PEREZ ZELEDON", "DISTRITO": "SAN ISIDRO" }, "geometry": { "type": "Point", "coordinates": [ -83.702011746672525, 9.373152013153705 ] } },
{ "type": "Feature", "properties": { "cat": 281, "NOMBRE": "CLINICA EL COYOL", "TIPO": "C.C.S.S", "RECURSOS": "ND", "PROVINCIA": "ALAJUELA", "CANTON": "ALAJUELA", "DISTRITO": "SAN JOSE" }, "geometry": { "type": "Point", "coordinates": [ -84.259815286624118, 10.001399717134154 ] } },
{ "type": "Feature", "properties": { "cat": 282, "NOMBRE": "CLINICA LA REFORMA", "TIPO": "C.C.S.S", "RECURSOS": "ND", "PROVINCIA": "ALAJUELA", "CANTON": "ALAJUELA", "DISTRITO": "SAN RAFAEL" }, "geometry": { "type": "Point", "coordinates": [ -84.221200441449085, 9.954744522114552 ] } },
{ "type": "Feature", "properties": { "cat": 283, "NOMBRE": "EBAIS SUCRE", "TIPO": "E.B.A.I.S", "RECURSOS": "ND", "PROVINCIA": "ALAJUELA", "CANTON": "SAN CARLOS", "DISTRITO": "QUESADA" }, "geometry": { "type": "Point", "coordinates": [ -84.430413832209894, 10.283341737900125 ] } },
{ "type": "Feature", "properties": { "cat": 284, "NOMBRE": "CLINICA EL CARMEN", "TIPO": "C.C.S.S", "RECURSOS": "1 CIRUJANO", "PROVINCIA": "LIMON", "CANTON": "SIQUIRRES", "DISTRITO": "SIQUIRRES" }, "geometry": { "type": "Point", "coordinates": [ -83.480292269656672, 10.199077769887555 ] } },
{ "type": "Feature", "properties": { "cat": 285, "NOMBRE": "CLINICA JICARAL", "TIPO": "C.C.S.S", "RECURSOS": "ND", "PROVINCIA": "PUNTARENAS", "CANTON": "PUNTARENAS", "DISTRITO": "LEPANTO" }, "geometry": { "type": "Point", "coordinates": [ -85.114846715218704, 9.960999496499205 ] } },
{ "type": "Feature", "properties": { "cat": 286, "NOMBRE": "CLINICA CATOLICA TAC E IMAGENES MEDICAS", "TIPO": "PRIVADA", "RECURSOS": "ND", "PROVINCIA": "SAN JOSE", "CANTON": "GOICOECHEA", "DISTRITO": "CALLE BLANCOS" }, "geometry": { "type": "Point", "coordinates": [ -84.060814308072636, 9.946993494554338 ] } },
{ "type": "Feature", "properties": { "cat": 287, "NOMBRE": "CLINICA DE ESPECIALIDADES MEDICAS LA PACIFICA", "TIPO": "PRIVADA", "RECURSOS": "ND", "PROVINCIA": "SAN JOSE", "CANTON": "SAN JOSE", "DISTRITO": "SAN FRANCISCO DE DOS RIOS" }, "geometry": { "type": "Point", "coordinates": [ -84.056513037964351, 9.910446714356681 ] } },
{ "type": "Feature", "properties": { "cat": 288, "NOMBRE": "CLINICA SANTA ROSA", "TIPO": "C.C.S.S", "RECURSOS": "ND", "PROVINCIA": "ALAJUELA", "CANTON": "SAN CARLOS", "DISTRITO": "POCOSOL" }, "geometry": { "type": "Point", "coordinates": [ -84.528571640501681, 10.623305918759947 ] } },
{ "type": "Feature", "properties": { "cat": 289, "NOMBRE": "CLINICA MONTERREY", "TIPO": "C.C.S.S", "RECURSOS": "ND", "PROVINCIA": "ALAJUELA", "CANTON": "SAN CARLOS", "DISTRITO": "MONTERREY" }, "geometry": { "type": "Point", "coordinates": [ -84.661941446813657, 10.537956605943142 ] } },
{ "type": "Feature", "properties": { "cat": 290, "NOMBRE": "CLINICA CHACHAGUA", "TIPO": "C.C.S.S", "RECURSOS": "ND", "PROVINCIA": "ALAJUELA", "CANTON": "SAN RAMON", "DISTRITO": "PEÑAS BLANCAS" }, "geometry": { "type": "Point", "coordinates": [ -84.596433496360021, 10.406751907414428 ] } },
{ "type": "Feature", "properties": { "cat": 291, "NOMBRE": "CLINICA PURISCAL", "TIPO": "C.C.S.S", "RECURSOS": "ND", "PROVINCIA": "ALAJUELA", "CANTON": "PURISCAL", "DISTRITO": "SANTIAGO" }, "geometry": { "type": "Point", "coordinates": [ -84.486770699865232, 10.064898584282055 ] } }
]
}
